[{"id": "483f96c4165760a1", "lng": 6.55183933, "lat": 53.00584644, "category": "Wegen, verkeer en straatmeubilair", "category_slug": "wegen-verkeer-en-straatmeubilair", "subcategory": "Verkeersbord", "subcategory_slug": "verkeersbord", "created_at": "2026-05-13T14:07:46.763334+00:00", "wijk": "Noorderpark", "resolved_date": "2026-05-18", "days_open": 4}, {"id": "4e8f884afe02b350", "lng": 6.549299955, "lat": 53.012666097, "category": "Afval", "category_slug": "afval", "subcategory": "Dumping", "subcategory_slug": "dumping", "created_at": "2026-05-18T08:40:36.169087+00:00", "wijk": "Noorderpark", "resolved_date": "2026-05-18", "days_open": 0}, {"id": "41061e8d367b4e0e", "lng": 6.557359993, "lat": 53.019002711, "category": "Afval", "category_slug": "afval", "subcategory": "Dumping", "subcategory_slug": "dumping", "created_at": "2026-05-18T08:44:48.761753+00:00", "wijk": "Peelo", "resolved_date": "2026-05-18", "days_open": 0}, {"id": "ced1df50b4150810", "lng": 6.56980783, "lat": 53.01985946, "category": "Overlast Openbare Ruimte", "category_slug": "overlast-openbare-ruimte", "subcategory": "Overig Overlast Openbare Ruimte", "subcategory_slug": "overig-overlast-openbare-ruimte", "created_at": "2026-05-12T10:06:36.02444+00:00", "wijk": "Peelo", "resolved_date": "2026-05-18", "days_open": 5}, {"id": "a9aaf0f5dfbf617f", "lng": 6.603937957, "lat": 53.011695684, "category": "Afval", "category_slug": "afval", "subcategory": "Dumping", "subcategory_slug": "dumping", "created_at": "2026-05-18T07:04:50.407296+00:00", "wijk": "Wijk 19 Rolde", "resolved_date": "2026-05-18", "days_open": 0}, {"id": "687270270d1e4058", "lng": 6.56494843, "lat": 52.98680833, "category": "Afval", "category_slug": "afval", "subcategory": "Dumping", "subcategory_slug": "dumping", "created_at": "2026-05-18T08:13:06.241992+00:00", "wijk": "Centrum", "resolved_date": "2026-05-18", "days_open": 0}, {"id": "c33ab96d574e43dc", "lng": 6.559076086, "lat": 52.995507075, "category": "Overlast Openbare Ruimte", "category_slug": "overlast-openbare-ruimte", "subcategory": "Overig Overlast Openbare Ruimte", "subcategory_slug": "overig-overlast-openbare-ruimte", "created_at": "2026-05-18T09:17:59.389142+00:00", "wijk": "Centrum", "resolved_date": "2026-05-18", "days_open": 0}, {"id": "4ab5e501ceec9f66", "lng": 6.520664692, "lat": 53.0072612, "category": "Openbaar groen en water", "category_slug": "openbaar-groen-en-water", "subcategory": "Overig Openbaar groen en water", "subcategory_slug": "overig-openbaar-groen-en-water", "created_at": "2026-03-21T13:57:30.179659+00:00", "wijk": "Kloosterveen", "address": "Asserwijk 25", "resolved_date": "2026-05-18", "days_open": 57}, {"id": "d7915f4a470a6d19", "lng": 6.57296199, "lat": 52.99943676, "category": "Riolering", "category_slug": "riolering", "subcategory": "Riool", "subcategory_slug": "riool", "created_at": "2026-05-18T07:15:38.85349+00:00", "wijk": "Assen-Oost", "address": "Havenkade 6", "resolved_date": "2026-05-18", "days_open": 0}, {"id": "bb261c6619452dc9", "lng": 6.51113988, "lat": 53.007092176, "category": "Openbaar groen en water", "category_slug": "openbaar-groen-en-water", "subcategory": "Onkruid", "subcategory_slug": "onkruid", "created_at": "2026-05-14T15:32:53.671448+00:00", "wijk": "Kloosterveen", "address": "Stedewater 51", "resolved_date": "2026-05-18", "days_open": 3}, {"id": "2ee051f177c06f41", "lng": 6.507382708, "lat": 53.007398073, "category": "Overlast Dier", "category_slug": "overlast-dier", "subcategory": "Plaagdier", "subcategory_slug": "plaagdier", "created_at": "2026-05-14T11:56:55.699275+00:00", "wijk": "Kloosterveen", "address": "Bosbraam 16", "resolved_date": "2026-05-18", "days_open": 3}, {"id": "3aad0e47c31fbc73", "lng": 6.520603001, "lat": 53.007166189, "category": "Openbaar groen en water", "category_slug": "openbaar-groen-en-water", "subcategory": "Overig Openbaar groen en water", "subcategory_slug": "overig-openbaar-groen-en-water", "created_at": "2026-05-18T09:04:26.126642+00:00", "wijk": "Kloosterveen", "address": "Asserwijk 25", "resolved_date": "2026-05-18", "days_open": 0}, {"id": "3e7bb8b4fcc16441", "lng": 6.532424168, "lat": 53.003078122, "category": "Afval", "category_slug": "afval", "subcategory": "Dumping", "subcategory_slug": "dumping", "created_at": "2026-05-18T07:49:54.564282+00:00", "wijk": "Lariks", "address": "Mien Ruysweg 10A-24", "resolved_date": "2026-05-18", "days_open": 0}, {"id": "fb0d8b9fdf337b67", "lng": 6.545233727, "lat": 53.027845305, "category": "Afval", "category_slug": "afval", "subcategory": "Overig Afval", "subcategory_slug": "overig-afval", "created_at": "2026-05-18T11:36:31.785803+00:00", "wijk": "Buitengebied", "address": "Zeijerweg 11", "resolved_date": "2026-05-18", "days_open": 0}, {"id": "2c827907d6f746c4", "lng": 6.510772705, "lat": 52.982637235, "category": "Afval", "category_slug": "afval", "subcategory": "Dumping", "subcategory_slug": "dumping", "created_at": "2026-05-18T11:18:24.103016+00:00", "wijk": "Buitengebied", "address": "Witterzomer 14", "resolved_date": "2026-05-18", "days_open": 0}, {"id": "69198efea732f1e6", "lng": 6.50596931, "lat": 53.00859304, "category": "Openbaar groen en water", "category_slug": "openbaar-groen-en-water", "subcategory": "Maaien", "subcategory_slug": "maaien", "created_at": "2026-05-13T13:02:29.896893+00:00", "wijk": "Kloosterveen", "address": "Boslelie 100", "resolved_date": "2026-05-19", "days_open": 5}, {"id": "37c3a3a4b1dcc95d", "lng": 6.525548105, "lat": 53.001391913, "category": "Afval", "category_slug": "afval", "subcategory": "Dumping", "subcategory_slug": "dumping", "created_at": "2026-05-18T06:29:02.620392+00:00", "wijk": "Kloosterveen", "address": "Asserwijk 36", "resolved_date": "2026-05-19", "days_open": 0}, {"id": "220cb03dda514720", "lng": 6.55642609, "lat": 53.00661846, "category": "Afval", "category_slug": "afval", "subcategory": "Minicontainer", "subcategory_slug": "minicontainer", "created_at": "2026-05-18T12:37:04.266173+00:00", "wijk": "Noorderpark", "address": "Vennebroekstraat 3", "resolved_date": "2026-05-19", "days_open": 0}, {"id": "19a0feca189b7dd2", "lng": 6.554334462, "lat": 53.006002532, "category": "Afval", "category_slug": "afval", "subcategory": "Dumping", "subcategory_slug": "dumping", "created_at": "2026-05-18T11:38:49.950182+00:00", "wijk": "Noorderpark", "address": "Oldengaardestraat 126", "resolved_date": "2026-05-19", "days_open": 0}, {"id": "237b15985aff3acd", "lng": 6.557204425, "lat": 53.014282207, "category": "Wegen, verkeer en straatmeubilair", "category_slug": "wegen-verkeer-en-straatmeubilair", "subcategory": "Onveilige verkeerssituatie", "subcategory_slug": "onveilige-verkeerssituatie", "created_at": "2026-04-11T09:40:49.115536+00:00", "wijk": "Peelo", "address": "Wolvenveen 63", "resolved_date": "2026-05-19", "days_open": 37}, {"id": "660acd01e54555a3", "lng": 6.546833664, "lat": 53.008429874, "category": "Wegen, verkeer en straatmeubilair", "category_slug": "wegen-verkeer-en-straatmeubilair", "subcategory": "Onveilige verkeerssituatie", "subcategory_slug": "onveilige-verkeerssituatie", "created_at": "2026-04-29T10:00:18.018322+00:00", "wijk": "Lariks", "address": "Rijnstraat 3", "resolved_date": "2026-05-19", "days_open": 19}, {"id": "1b951ecda9f62159", "lng": 6.560437381, "lat": 53.015738511, "category": "Openbaar groen en water", "category_slug": "openbaar-groen-en-water", "subcategory": "Overig Openbaar groen en water", "subcategory_slug": "overig-openbaar-groen-en-water", "created_at": "2026-05-18T10:56:39.627154+00:00", "wijk": "Peelo", "address": "Ruiterakker 138", "resolved_date": "2026-05-19", "days_open": 0}, {"id": "7c105675619bf59b", "lng": 6.560358703, "lat": 53.015709466, "category": "Openbaar groen en water", "category_slug": "openbaar-groen-en-water", "subcategory": "Snoeien", "subcategory_slug": "snoeien", "created_at": "2026-05-18T10:46:20.334783+00:00", "wijk": "Peelo", "address": "Walakker 85", "resolved_date": "2026-05-19", "days_open": 0}, {"id": "10128a6764e8e7f5", "lng": 6.51337888, "lat": 53.02602993, "category": "Wegen, verkeer en straatmeubilair", "category_slug": "wegen-verkeer-en-straatmeubilair", "subcategory": "Onderhoud straat, fietspad en stoep", "subcategory_slug": "onderhoud-straat-fietspad-en-stoep", "created_at": "2026-05-18T10:09:10.44939+00:00", "wijk": "Buitengebied", "address": "Minister Cremerstraat 10A", "resolved_date": "2026-05-19", "days_open": 0}, {"id": "f47ad2d514868a6b", "lng": 6.581965685, "lat": 53.019461653, "category": "Openbaar groen en water", "category_slug": "openbaar-groen-en-water", "subcategory": "Sloot", "subcategory_slug": "sloot", "created_at": "2026-05-15T16:05:20.534749+00:00", "wijk": "Marsdijk", "address": "Hoogbree 80", "resolved_date": "2026-05-19", "days_open": 3}, {"id": "4f74b2d0efd6c0dc", "lng": 6.58462166, "lat": 53.02255194, "category": "Openbaar groen en water", "category_slug": "openbaar-groen-en-water", "subcategory": "Maaien", "subcategory_slug": "maaien", "created_at": "2026-05-18T09:44:24.882151+00:00", "wijk": "Marsdijk", "address": "Jan Palachweg 89", "resolved_date": "2026-05-19", "days_open": 0}, {"id": "4ce5fa349234638e", "lng": 6.58696998, "lat": 53.02231272, "category": "Openbaar groen en water", "category_slug": "openbaar-groen-en-water", "subcategory": "Overig Openbaar groen en water", "subcategory_slug": "overig-openbaar-groen-en-water", "created_at": "2026-05-13T18:26:08.110164+00:00", "wijk": "Marsdijk", "address": "Boerhoorndreef 127", "resolved_date": "2026-05-19", "days_open": 5}, {"id": "1f6afbd672797b36", "lng": 6.59045577, "lat": 53.019230211, "category": "Wegen, verkeer en straatmeubilair", "category_slug": "wegen-verkeer-en-straatmeubilair", "subcategory": "Onveilige verkeerssituatie", "subcategory_slug": "onveilige-verkeerssituatie", "created_at": "2026-04-30T14:08:39.941585+00:00", "wijk": "Marsdijk", "address": "Weidebeemd 79", "resolved_date": "2026-05-19", "days_open": 18}, {"id": "ec5916d3223483bf", "lng": 6.58570068, "lat": 53.014771643, "category": "Openbaar groen en water", "category_slug": "openbaar-groen-en-water", "subcategory": "Overig Openbaar groen en water", "subcategory_slug": "overig-openbaar-groen-en-water", "created_at": "2026-05-18T08:50:20.479094+00:00", "wijk": "Marsdijk", "address": "Muddegoorn 50", "resolved_date": "2026-05-19", "days_open": 0}, {"id": "7917caa4e9fd3453", "lng": 6.566897353, "lat": 53.013644, "category": "Wegen, verkeer en straatmeubilair", "category_slug": "wegen-verkeer-en-straatmeubilair", "subcategory": "Onveilige verkeerssituatie", "subcategory_slug": "onveilige-verkeerssituatie", "created_at": "2026-02-21T11:31:20.206506+00:00", "wijk": "Peelo", "address": "Binnenes 65", "resolved_date": "2026-05-19", "days_open": 86}, {"id": "0238c8f44f5655dd", "lng": 6.567026675, "lat": 53.013621409, "category": "Wegen, verkeer en straatmeubilair", "category_slug": "wegen-verkeer-en-straatmeubilair", "subcategory": "Onveilige verkeerssituatie", "subcategory_slug": "onveilige-verkeerssituatie", "created_at": "2026-02-21T11:37:37.413227+00:00", "wijk": "Peelo", "address": "Buitenes 19", "resolved_date": "2026-05-19", "days_open": 86}, {"id": "072d09a43dc05f67", "lng": 6.566998397, "lat": 53.013588596, "category": "Wegen, verkeer en straatmeubilair", "category_slug": "wegen-verkeer-en-straatmeubilair", "subcategory": "Onveilige verkeerssituatie", "subcategory_slug": "onveilige-verkeerssituatie", "created_at": "2026-02-21T14:36:28.079302+00:00", "wijk": "Peelo", "address": "Buitenes 15", "resolved_date": "2026-05-19", "days_open": 86}, {"id": "8a4d69285f0b0541", "lng": 6.535556316, "lat": 52.986756502, "category": "Openbaar groen en water", "category_slug": "openbaar-groen-en-water", "subcategory": "Maaien", "subcategory_slug": "maaien", "created_at": "2026-05-18T10:30:41.139257+00:00", "wijk": "Assen-West", "address": "Salland 80", "resolved_date": "2026-05-19", "days_open": 0}, {"id": "152b60ea8308a415", "lng": 6.519540846, "lat": 52.998827843, "category": "Wegen, verkeer en straatmeubilair", "category_slug": "wegen-verkeer-en-straatmeubilair", "subcategory": "Onderhoud straat, fietspad en stoep", "subcategory_slug": "onderhoud-straat-fietspad-en-stoep", "created_at": "2026-05-13T11:16:14.234705+00:00", "wijk": "Kloosterveen", "address": "Hertenlaan 55", "resolved_date": "2026-05-19", "days_open": 5}, {"id": "509cbab19c719477", "lng": 6.55171496, "lat": 53.00873143, "category": "Afval", "category_slug": "afval", "subcategory": "Container", "subcategory_slug": "container", "created_at": "2026-05-19T06:54:16.526509+00:00", "wijk": "Noorderpark", "address": null, "resolved_date": "2026-05-19", "days_open": 0}, {"id": "a3145b35a6a7aa80", "lng": 6.532731517, "lat": 52.988996061, "category": "Openbaar groen en water", "category_slug": "openbaar-groen-en-water", "subcategory": "Onkruid", "subcategory_slug": "onkruid", "created_at": "2026-05-15T13:42:33.292777+00:00", "wijk": "Assen-West", "address": "Fivelingostraat 88", "resolved_date": "2026-05-19", "days_open": 3}, {"id": "4d1098c3c5548c43", "lng": 6.5310398, "lat": 52.99081331, "category": "Openbaar groen en water", "category_slug": "openbaar-groen-en-water", "subcategory": "Snoeien", "subcategory_slug": "snoeien", "created_at": "2026-05-18T12:03:49.542857+00:00", "wijk": "Kloosterveen", "address": "Oldambtstraat 33", "resolved_date": "2026-05-19", "days_open": 0}, {"id": "4d297b52b6308a14", "lng": 6.517419219, "lat": 52.994917983, "category": "overig", "category_slug": "overig", "subcategory": "overig", "subcategory_slug": "overig", "created_at": "2026-05-19T07:55:02.545474+00:00", "wijk": "Kloosterveen", "address": "Jupiterstraat 41", "resolved_date": "2026-05-19", "days_open": 0}, {"id": "507195634244cfbb", "lng": 6.50770112, "lat": 53.00757029, "category": "Openbaar groen en water", "category_slug": "openbaar-groen-en-water", "subcategory": "Snoeien", "subcategory_slug": "snoeien", "created_at": "2026-05-19T07:09:35.805806+00:00", "wijk": "Kloosterveen", "address": null, "resolved_date": "2026-05-20", "days_open": 0}, {"id": "8e8b407b76a130a3", "lng": 6.536082903, "lat": 53.002431627, "category": "Overlast Openbare Ruimte", "category_slug": "overlast-openbare-ruimte", "subcategory": "Overig Overlast Openbare Ruimte", "subcategory_slug": "overig-overlast-openbare-ruimte", "created_at": "2026-05-09T18:47:31.566392+00:00", "wijk": "Lariks", "address": "Scheldestraat 1", "resolved_date": "2026-05-20", "days_open": 10}, {"id": "3debaf2926f08c07", "lng": 6.537219286, "lat": 53.004898563, "category": "Civiele Constructie", "category_slug": "civiele-constructie", "subcategory": "Brug", "subcategory_slug": "brug", "created_at": "2026-05-19T07:34:54.848208+00:00", "wijk": "Lariks", "address": "Sambrestraat 13", "resolved_date": "2026-05-20", "days_open": 0}, {"id": "ce6cd98e23788d86", "lng": 6.53935686, "lat": 53.00512157, "category": "Afval", "category_slug": "afval", "subcategory": "Veeg en zwerfvuil", "subcategory_slug": "veeg-en-zwerfvuil", "created_at": "2026-05-19T07:24:06.578401+00:00", "wijk": "Lariks", "address": "Dommelstraat 46", "resolved_date": "2026-05-20", "days_open": 0}, {"id": "2b3f4b387f0f3689", "lng": 6.54041792, "lat": 53.00018649, "category": "Overlast Dier", "category_slug": "overlast-dier", "subcategory": "Hond", "subcategory_slug": "hond", "created_at": "2026-03-19T15:37:17.98845+00:00", "wijk": "Lariks", "address": "Eem 36", "resolved_date": "2026-05-20", "days_open": 61}, {"id": "7c50acdbc989452c", "lng": 6.54036954, "lat": 53.000228978, "category": "Overlast Dier", "category_slug": "overlast-dier", "subcategory": "Hond", "subcategory_slug": "hond", "created_at": "2026-03-07T13:53:49.022991+00:00", "wijk": "Lariks", "address": "Eem 38", "resolved_date": "2026-05-20", "days_open": 73}, {"id": "5e742478cd3fb455", "lng": 6.544361427, "lat": 53.00188345, "category": "Wegen, verkeer en straatmeubilair", "category_slug": "wegen-verkeer-en-straatmeubilair", "subcategory": "Onveilige verkeerssituatie", "subcategory_slug": "onveilige-verkeerssituatie", "created_at": "2026-05-16T18:00:47.060755+00:00", "wijk": "Lariks", "address": "Menso Altingstraat 12", "resolved_date": "2026-05-20", "days_open": 3}, {"id": "dc6ba6cef713e7e0", "lng": 6.549149752, "lat": 53.000251577, "category": "Wegen, verkeer en straatmeubilair", "category_slug": "wegen-verkeer-en-straatmeubilair", "subcategory": "Overig Wegen, verkeer en straatmeubilair", "subcategory_slug": "overig-wegen-verkeer-en-straatmeubilair", "created_at": "2026-05-19T08:01:35.655891+00:00", "wijk": "Noorderpark", "address": "Nobellaan 241A", "resolved_date": "2026-05-20", "days_open": 0}, {"id": "6ac8870919354b75", "lng": 6.54992705, "lat": 53.00260175, "category": "Openbaar groen en water", "category_slug": "openbaar-groen-en-water", "subcategory": "Boom", "subcategory_slug": "boom", "created_at": "2026-05-18T09:49:04.893043+00:00", "wijk": "Noorderpark", "address": "Talmastraat 56", "resolved_date": "2026-05-20", "days_open": 1}, {"id": "6ac0becaa1670a9c", "lng": 6.55738943, "lat": 53.00033612, "category": "Overlast Openbare Ruimte", "category_slug": "overlast-openbare-ruimte", "subcategory": "Overig Overlast Openbare Ruimte", "subcategory_slug": "overig-overlast-openbare-ruimte", "created_at": "2026-05-13T14:20:18.431867+00:00", "wijk": "Noorderpark", "address": "Mr. H. Smeengestraat 15", "resolved_date": "2026-05-20", "days_open": 6}, {"id": "124fec6c46a54feb", "lng": 6.56011184, "lat": 53.00148281, "category": "Afval", "category_slug": "afval", "subcategory": "Dumping", "subcategory_slug": "dumping", "created_at": "2026-05-18T13:45:55.910162+00:00", "wijk": "Noorderpark", "address": "Ir. J.W. Albardastraat 21", "resolved_date": "2026-05-20", "days_open": 1}, {"id": "885c41366d225459", "lng": 6.56220663, "lat": 53.01062236, "category": "Wegen, verkeer en straatmeubilair", "category_slug": "wegen-verkeer-en-straatmeubilair", "subcategory": "Onderhoud straat, fietspad en stoep", "subcategory_slug": "onderhoud-straat-fietspad-en-stoep", "created_at": "2026-05-13T07:38:25.613321+00:00", "wijk": "Noorderpark", "address": "Vivaldilaan 72", "resolved_date": "2026-05-20", "days_open": 6}, {"id": "79d3bef16d64c005", "lng": 6.546049118, "lat": 53.0105553, "category": "Afval", "category_slug": "afval", "subcategory": "Overig Afval", "subcategory_slug": "overig-afval", "created_at": "2026-05-18T09:46:21.949421+00:00", "wijk": "Wijk 04 Pittelo", "address": "Neckarstraat 2", "resolved_date": "2026-05-20", "days_open": 1}, {"id": "cd814d6580d292ec", "lng": 6.546833664, "lat": 53.008429874, "category": "Overlast Openbare Ruimte", "category_slug": "overlast-openbare-ruimte", "subcategory": "Overig Overlast Openbare Ruimte", "subcategory_slug": "overig-overlast-openbare-ruimte", "created_at": "2026-05-08T15:57:08.277166+00:00", "wijk": "Lariks", "address": "Rijnstraat 3", "resolved_date": "2026-05-20", "days_open": 11}, {"id": "30428299c7e1fce2", "lng": 6.541666389, "lat": 53.008452468, "category": "Afval", "category_slug": "afval", "subcategory": "Gevaarlijk afval", "subcategory_slug": "gevaarlijk-afval", "created_at": "2026-05-19T07:25:01.775983+00:00", "wijk": "Lariks", "address": "Rhônepad 97", "resolved_date": "2026-05-20", "days_open": 0}, {"id": "b7d0bed13f9ff8ca", "lng": 6.53904852, "lat": 53.00923157, "category": "Wegen, verkeer en straatmeubilair", "category_slug": "wegen-verkeer-en-straatmeubilair", "subcategory": "Onveilige verkeerssituatie", "subcategory_slug": "onveilige-verkeerssituatie", "created_at": "2026-05-19T06:56:03.409027+00:00", "wijk": "Lariks", "address": "Rijnstraat 41", "resolved_date": "2026-05-20", "days_open": 0}, {"id": "d409329674ff265a", "lng": 6.560437381, "lat": 53.015738511, "category": "Openbaar groen en water", "category_slug": "openbaar-groen-en-water", "subcategory": "Overig Openbaar groen en water", "subcategory_slug": "overig-openbaar-groen-en-water", "created_at": "2026-05-18T05:23:46.561353+00:00", "wijk": "Peelo", "address": "Ruiterakker 138", "resolved_date": "2026-05-20", "days_open": 1}, {"id": "f85d4b233578a85e", "lng": 6.57048296, "lat": 53.02002354, "category": "Riolering", "category_slug": "riolering", "subcategory": "Wateroverlast", "subcategory_slug": "wateroverlast", "created_at": "2026-05-19T07:17:24.794251+00:00", "wijk": "Peelo", "address": "Groenkampen 110", "resolved_date": "2026-05-20", "days_open": 0}, {"id": "70eeec18aa5c16a6", "lng": 6.59198258, "lat": 53.01279903, "category": "Afval", "category_slug": "afval", "subcategory": "Dumping", "subcategory_slug": "dumping", "created_at": "2025-06-18T07:47:34.63123+00:00", "wijk": "Marsdijk", "address": "Stoepveldsingel 100", "resolved_date": "2026-05-20", "days_open": 335}, {"id": "d8c72548627238c9", "lng": 6.5637796, "lat": 53.0113317, "category": "Afval", "category_slug": "afval", "subcategory": "Overig Afval", "subcategory_slug": "overig-afval", "created_at": "2026-05-18T22:13:25.205871+00:00", "wijk": "Noorderpark", "address": "Smetanalaan 364", "resolved_date": "2026-05-20", "days_open": 1}, {"id": "86e2fa4229b2928c", "lng": 6.563327044, "lat": 53.011298487, "category": "Overlast Openbare Ruimte", "category_slug": "overlast-openbare-ruimte", "subcategory": "Overig Overlast Openbare Ruimte", "subcategory_slug": "overig-overlast-openbare-ruimte", "created_at": "2026-05-16T18:33:52.288499+00:00", "wijk": "Noorderpark", "address": "Smetanalaan 358", "resolved_date": "2026-05-20", "days_open": 3}, {"id": "3ee31b63817ced17", "lng": 6.5870791, "lat": 52.99979918, "category": "Openbaar groen en water", "category_slug": "openbaar-groen-en-water", "subcategory": "Overig Openbaar groen en water", "subcategory_slug": "overig-openbaar-groen-en-water", "created_at": "2026-05-13T13:10:46.960372+00:00", "wijk": "Assen-Oost", "address": "Vreebergen 11", "resolved_date": "2026-05-20", "days_open": 6}, {"id": "e07f46cb06de76c0", "lng": 6.582479775, "lat": 52.99559548, "category": "Afval", "category_slug": "afval", "subcategory": "Veeg en zwerfvuil", "subcategory_slug": "veeg-en-zwerfvuil", "created_at": "2026-01-26T11:16:00.038957+00:00", "wijk": "Assen-Oost", "address": "Tooroppad 45", "resolved_date": "2026-05-20", "days_open": 113}, {"id": "7542f19075caa6a8", "lng": 6.58579539, "lat": 52.99321557, "category": "Wegen, verkeer en straatmeubilair", "category_slug": "wegen-verkeer-en-straatmeubilair", "subcategory": "Speelvoorziening", "subcategory_slug": "speelvoorziening", "created_at": "2026-04-21T08:05:46.756634+00:00", "wijk": "Assen-Oost", "address": "Amelte 1A", "resolved_date": "2026-05-20", "days_open": 28}, {"id": "37df91336fb75963", "lng": 6.57971528, "lat": 52.99146999, "category": "Overlast Openbare Ruimte", "category_slug": "overlast-openbare-ruimte", "subcategory": "Overig Overlast Openbare Ruimte", "subcategory_slug": "overig-overlast-openbare-ruimte", "created_at": "2025-04-30T11:56:09.809179+00:00", "wijk": "Assen-Oost", "address": "Adelaarsweg 4", "resolved_date": "2026-05-20", "days_open": 384}, {"id": "3bd646232474890d", "lng": 6.57096626, "lat": 52.98851416, "category": "Openbaar groen en water", "category_slug": "openbaar-groen-en-water", "subcategory": "Onkruid", "subcategory_slug": "onkruid", "created_at": "2026-02-11T15:44:49.721456+00:00", "wijk": "Centrum", "address": "Anemoonstraat 2", "resolved_date": "2026-05-20", "days_open": 97}, {"id": "08408aa36a13d8b0", "lng": 6.563429832, "lat": 52.993426266, "category": "Overlast Openbare Ruimte", "category_slug": "overlast-openbare-ruimte", "subcategory": "Overig Overlast Openbare Ruimte", "subcategory_slug": "overig-overlast-openbare-ruimte", "created_at": "2026-05-19T07:57:56.988874+00:00", "wijk": "Centrum", "address": "Brink 33", "resolved_date": "2026-05-20", "days_open": 0}, {"id": "2803bd1afa6c709c", "lng": 6.570213277, "lat": 52.994950896, "category": "Wegen, verkeer en straatmeubilair", "category_slug": "wegen-verkeer-en-straatmeubilair", "subcategory": "Onderhoud straat, fietspad en stoep", "subcategory_slug": "onderhoud-straat-fietspad-en-stoep", "created_at": "2026-05-18T08:54:41.893018+00:00", "wijk": "Centrum", "address": "Prins Hendrikstraat 21", "resolved_date": "2026-05-20", "days_open": 1}, {"id": "8ef9e6e3a7e411b7", "lng": 6.577307582, "lat": 52.992619039, "category": "Afval", "category_slug": "afval", "subcategory": "Gevaarlijk afval", "subcategory_slug": "gevaarlijk-afval", "created_at": "2026-05-19T08:16:41.858502+00:00", "wijk": "Assen-Oost", "address": "Mezenlaan 1", "resolved_date": "2026-05-20", "days_open": 0}, {"id": "886c4aca131481ea", "lng": 6.563596129, "lat": 52.99791256, "category": "Wegen, verkeer en straatmeubilair", "category_slug": "wegen-verkeer-en-straatmeubilair", "subcategory": "Overig Wegen, verkeer en straatmeubilair", "subcategory_slug": "overig-wegen-verkeer-en-straatmeubilair", "created_at": "2026-05-18T13:31:28.90895+00:00", "wijk": "Noorderpark", "address": "Zaagmolen 20", "resolved_date": "2026-05-20", "days_open": 1}, {"id": "6bfaf69e2c7495f1", "lng": 6.55613731, "lat": 52.99919804, "category": "Openbaar groen en water", "category_slug": "openbaar-groen-en-water", "subcategory": "Snoeien", "subcategory_slug": "snoeien", "created_at": "2026-05-17T09:35:45.747615+00:00", "wijk": "Noorderpark", "address": "Mr. P.J. Troelstralaan 139A", "resolved_date": "2026-05-20", "days_open": 2}, {"id": "ad9eb10121cccf4f", "lng": 6.55484366, "lat": 52.99761998, "category": "Afval", "category_slug": "afval", "subcategory": "Dumping", "subcategory_slug": "dumping", "created_at": "2026-05-19T07:39:09.633687+00:00", "wijk": "Noorderpark", "address": "Nobellaan 6", "resolved_date": "2026-05-20", "days_open": 0}, {"id": "dc4a2322868a7844", "lng": 6.556905806, "lat": 52.996836366, "category": "Overlast Openbare Ruimte", "category_slug": "overlast-openbare-ruimte", "subcategory": "Overig Overlast Openbare Ruimte", "subcategory_slug": "overig-overlast-openbare-ruimte", "created_at": "2026-05-16T11:33:42.698595+00:00", "wijk": "Centrum", "address": "Kanaalstraat 10", "resolved_date": "2026-05-20", "days_open": 3}, {"id": "4d64f46c64fb179e", "lng": 6.550284326, "lat": 52.995639606, "category": "Overlast Dier", "category_slug": "overlast-dier", "subcategory": "Hond", "subcategory_slug": "hond", "created_at": "2026-05-11T08:12:24.122103+00:00", "wijk": "Lariks", "address": "Zeemanstraat 1", "resolved_date": "2026-05-20", "days_open": 8}, {"id": "6ef7d5bf875ed494", "lng": 6.54717843, "lat": 52.9961758, "category": "Openbaar groen en water", "category_slug": "openbaar-groen-en-water", "subcategory": "Snoeien", "subcategory_slug": "snoeien", "created_at": "2026-05-18T08:15:23.130016+00:00", "wijk": "Lariks", "address": "van der Waalspad 15", "resolved_date": "2026-05-20", "days_open": 1}, {"id": "a0a01e626155cdff", "lng": 6.53774259, "lat": 52.99816324, "category": "Wegen, verkeer en straatmeubilair", "category_slug": "wegen-verkeer-en-straatmeubilair", "subcategory": "Verkeersbord", "subcategory_slug": "verkeersbord", "created_at": "2026-04-14T07:13:08.931852+00:00", "wijk": "Lariks", "address": "Epe 83", "resolved_date": "2026-05-20", "days_open": 35}, {"id": "e212ae062421225b", "lng": 6.555855274, "lat": 52.991958716, "category": "Wegen, verkeer en straatmeubilair", "category_slug": "wegen-verkeer-en-straatmeubilair", "subcategory": "Overig Wegen, verkeer en straatmeubilair", "subcategory_slug": "overig-wegen-verkeer-en-straatmeubilair", "created_at": "2026-05-19T07:17:06.306674+00:00", "wijk": "Centrum", "address": "Prinses Irenestraat 8", "resolved_date": "2026-05-20", "days_open": 0}, {"id": "c6f1aac69786e56a", "lng": 6.555780172, "lat": 52.9920572, "category": "Wegen, verkeer en straatmeubilair", "category_slug": "wegen-verkeer-en-straatmeubilair", "subcategory": "Onderhoud straat, fietspad en stoep", "subcategory_slug": "onderhoud-straat-fietspad-en-stoep", "created_at": "2026-05-19T07:23:43.491238+00:00", "wijk": "Centrum", "address": "Prinses Irenestraat 6", "resolved_date": "2026-05-20", "days_open": 0}, {"id": "776a3eb46f055b56", "lng": 6.536834911, "lat": 52.981851601, "category": "Wegen, verkeer en straatmeubilair", "category_slug": "wegen-verkeer-en-straatmeubilair", "subcategory": "Straatverlichting", "subcategory_slug": "straatverlichting", "created_at": "2026-05-19T07:56:44.601222+00:00", "wijk": "Assen-West", "address": "De Vallei 49", "resolved_date": "2026-05-20", "days_open": 0}, {"id": "8ce218015e932821", "lng": 6.504609227, "lat": 52.997365343, "category": "Openbaar groen en water", "category_slug": "openbaar-groen-en-water", "subcategory": "Beplanting", "subcategory_slug": "beplanting", "created_at": "2026-05-14T15:08:37.799606+00:00", "wijk": "Kloosterveen", "address": "Rosa Spierweg 43", "resolved_date": "2026-05-20", "days_open": 5}, {"id": "1f370738883eb7ec", "lng": 6.49781906, "lat": 52.99887568, "category": "Afval", "category_slug": "afval", "subcategory": "Minicontainer", "subcategory_slug": "minicontainer", "created_at": "2026-05-19T08:10:00.235376+00:00", "wijk": "Kloosterveen", "address": "Spade 15", "resolved_date": "2026-05-20", "days_open": 0}]