[{"id": "483f96c4165760a1", "lng": 6.55183933, "lat": 53.00584644, "category": "Wegen, verkeer en straatmeubilair", "category_slug": "wegen-verkeer-en-straatmeubilair", "subcategory": "Verkeersbord", "subcategory_slug": "verkeersbord", "created_at": "2026-05-13T14:07:46.763334+00:00", "wijk": "Noorderpark", "resolved_date": "2026-05-18", "days_open": 4}, {"id": "4e8f884afe02b350", "lng": 6.549299955, "lat": 53.012666097, "category": "Afval", "category_slug": "afval", "subcategory": "Dumping", "subcategory_slug": "dumping", "created_at": "2026-05-18T08:40:36.169087+00:00", "wijk": "Noorderpark", "resolved_date": "2026-05-18", "days_open": 0}, {"id": "41061e8d367b4e0e", "lng": 6.557359993, "lat": 53.019002711, "category": "Afval", "category_slug": "afval", "subcategory": "Dumping", "subcategory_slug": "dumping", "created_at": "2026-05-18T08:44:48.761753+00:00", "wijk": "Peelo", "resolved_date": "2026-05-18", "days_open": 0}, {"id": "ced1df50b4150810", "lng": 6.56980783, "lat": 53.01985946, "category": "Overlast Openbare Ruimte", "category_slug": "overlast-openbare-ruimte", "subcategory": "Overig Overlast Openbare Ruimte", "subcategory_slug": "overig-overlast-openbare-ruimte", "created_at": "2026-05-12T10:06:36.02444+00:00", "wijk": "Peelo", "resolved_date": "2026-05-18", "days_open": 5}, {"id": "a9aaf0f5dfbf617f", "lng": 6.603937957, "lat": 53.011695684, "category": "Afval", "category_slug": "afval", "subcategory": "Dumping", "subcategory_slug": "dumping", "created_at": "2026-05-18T07:04:50.407296+00:00", "wijk": "Wijk 19 Rolde", "resolved_date": "2026-05-18", "days_open": 0}, {"id": "687270270d1e4058", "lng": 6.56494843, "lat": 52.98680833, "category": "Afval", "category_slug": "afval", "subcategory": "Dumping", "subcategory_slug": "dumping", "created_at": "2026-05-18T08:13:06.241992+00:00", "wijk": "Centrum", "resolved_date": "2026-05-18", "days_open": 0}, {"id": "c33ab96d574e43dc", "lng": 6.559076086, "lat": 52.995507075, "category": "Overlast Openbare Ruimte", "category_slug": "overlast-openbare-ruimte", "subcategory": "Overig Overlast Openbare Ruimte", "subcategory_slug": "overig-overlast-openbare-ruimte", "created_at": "2026-05-18T09:17:59.389142+00:00", "wijk": "Centrum", "resolved_date": "2026-05-18", "days_open": 0}, {"id": "4ab5e501ceec9f66", "lng": 6.520664692, "lat": 53.0072612, "category": "Openbaar groen en water", "category_slug": "openbaar-groen-en-water", "subcategory": "Overig Openbaar groen en water", "subcategory_slug": "overig-openbaar-groen-en-water", "created_at": "2026-03-21T13:57:30.179659+00:00", "wijk": "Kloosterveen", "address": "Asserwijk 25", "resolved_date": "2026-05-18", "days_open": 57}, {"id": "d7915f4a470a6d19", "lng": 6.57296199, "lat": 52.99943676, "category": "Riolering", "category_slug": "riolering", "subcategory": "Riool", "subcategory_slug": "riool", "created_at": "2026-05-18T07:15:38.85349+00:00", "wijk": "Assen-Oost", "address": "Havenkade 6", "resolved_date": "2026-05-18", "days_open": 0}, {"id": "bb261c6619452dc9", "lng": 6.51113988, "lat": 53.007092176, "category": "Openbaar groen en water", "category_slug": "openbaar-groen-en-water", "subcategory": "Onkruid", "subcategory_slug": "onkruid", "created_at": "2026-05-14T15:32:53.671448+00:00", "wijk": "Kloosterveen", "address": "Stedewater 51", "resolved_date": "2026-05-18", "days_open": 3}, {"id": "2ee051f177c06f41", "lng": 6.507382708, "lat": 53.007398073, "category": "Overlast Dier", "category_slug": "overlast-dier", "subcategory": "Plaagdier", "subcategory_slug": "plaagdier", "created_at": "2026-05-14T11:56:55.699275+00:00", "wijk": "Kloosterveen", "address": "Bosbraam 16", "resolved_date": "2026-05-18", "days_open": 3}, {"id": "3aad0e47c31fbc73", "lng": 6.520603001, "lat": 53.007166189, "category": "Openbaar groen en water", "category_slug": "openbaar-groen-en-water", "subcategory": "Overig Openbaar groen en water", "subcategory_slug": "overig-openbaar-groen-en-water", "created_at": "2026-05-18T09:04:26.126642+00:00", "wijk": "Kloosterveen", "address": "Asserwijk 25", "resolved_date": "2026-05-18", "days_open": 0}, {"id": "3e7bb8b4fcc16441", "lng": 6.532424168, "lat": 53.003078122, "category": "Afval", "category_slug": "afval", "subcategory": "Dumping", "subcategory_slug": "dumping", "created_at": "2026-05-18T07:49:54.564282+00:00", "wijk": "Lariks", "address": "Mien Ruysweg 10A-24", "resolved_date": "2026-05-18", "days_open": 0}, {"id": "fb0d8b9fdf337b67", "lng": 6.545233727, "lat": 53.027845305, "category": "Afval", "category_slug": "afval", "subcategory": "Overig Afval", "subcategory_slug": "overig-afval", "created_at": "2026-05-18T11:36:31.785803+00:00", "wijk": "Buitengebied", "address": "Zeijerweg 11", "resolved_date": "2026-05-18", "days_open": 0}, {"id": "2c827907d6f746c4", "lng": 6.510772705, "lat": 52.982637235, "category": "Afval", "category_slug": "afval", "subcategory": "Dumping", "subcategory_slug": "dumping", "created_at": "2026-05-18T11:18:24.103016+00:00", "wijk": "Buitengebied", "address": "Witterzomer 14", "resolved_date": "2026-05-18", "days_open": 0}, {"id": "69198efea732f1e6", "lng": 6.50596931, "lat": 53.00859304, "category": "Openbaar groen en water", "category_slug": "openbaar-groen-en-water", "subcategory": "Maaien", "subcategory_slug": "maaien", "created_at": "2026-05-13T13:02:29.896893+00:00", "wijk": "Kloosterveen", "address": "Boslelie 100", "resolved_date": "2026-05-19", "days_open": 5}, {"id": "37c3a3a4b1dcc95d", "lng": 6.525548105, "lat": 53.001391913, "category": "Afval", "category_slug": "afval", "subcategory": "Dumping", "subcategory_slug": "dumping", "created_at": "2026-05-18T06:29:02.620392+00:00", "wijk": "Kloosterveen", "address": "Asserwijk 36", "resolved_date": "2026-05-19", "days_open": 0}, {"id": "220cb03dda514720", "lng": 6.55642609, "lat": 53.00661846, "category": "Afval", "category_slug": "afval", "subcategory": "Minicontainer", "subcategory_slug": "minicontainer", "created_at": "2026-05-18T12:37:04.266173+00:00", "wijk": "Noorderpark", "address": "Vennebroekstraat 3", "resolved_date": "2026-05-19", "days_open": 0}, {"id": "19a0feca189b7dd2", "lng": 6.554334462, "lat": 53.006002532, "category": "Afval", "category_slug": "afval", "subcategory": "Dumping", "subcategory_slug": "dumping", "created_at": "2026-05-18T11:38:49.950182+00:00", "wijk": "Noorderpark", "address": "Oldengaardestraat 126", "resolved_date": "2026-05-19", "days_open": 0}, {"id": "237b15985aff3acd", "lng": 6.557204425, "lat": 53.014282207, "category": "Wegen, verkeer en straatmeubilair", "category_slug": "wegen-verkeer-en-straatmeubilair", "subcategory": "Onveilige verkeerssituatie", "subcategory_slug": "onveilige-verkeerssituatie", "created_at": "2026-04-11T09:40:49.115536+00:00", "wijk": "Peelo", "address": "Wolvenveen 63", "resolved_date": "2026-05-19", "days_open": 37}, {"id": "660acd01e54555a3", "lng": 6.546833664, "lat": 53.008429874, "category": "Wegen, verkeer en straatmeubilair", "category_slug": "wegen-verkeer-en-straatmeubilair", "subcategory": "Onveilige verkeerssituatie", "subcategory_slug": "onveilige-verkeerssituatie", "created_at": "2026-04-29T10:00:18.018322+00:00", "wijk": "Lariks", "address": "Rijnstraat 3", "resolved_date": "2026-05-19", "days_open": 19}, {"id": "1b951ecda9f62159", "lng": 6.560437381, "lat": 53.015738511, "category": "Openbaar groen en water", "category_slug": "openbaar-groen-en-water", "subcategory": "Overig Openbaar groen en water", "subcategory_slug": "overig-openbaar-groen-en-water", "created_at": "2026-05-18T10:56:39.627154+00:00", "wijk": "Peelo", "address": "Ruiterakker 138", "resolved_date": "2026-05-19", "days_open": 0}, {"id": "7c105675619bf59b", "lng": 6.560358703, "lat": 53.015709466, "category": "Openbaar groen en water", "category_slug": "openbaar-groen-en-water", "subcategory": "Snoeien", "subcategory_slug": "snoeien", "created_at": "2026-05-18T10:46:20.334783+00:00", "wijk": "Peelo", "address": "Walakker 85", "resolved_date": "2026-05-19", "days_open": 0}, {"id": "10128a6764e8e7f5", "lng": 6.51337888, "lat": 53.02602993, "category": "Wegen, verkeer en straatmeubilair", "category_slug": "wegen-verkeer-en-straatmeubilair", "subcategory": "Onderhoud straat, fietspad en stoep", "subcategory_slug": "onderhoud-straat-fietspad-en-stoep", "created_at": "2026-05-18T10:09:10.44939+00:00", "wijk": "Buitengebied", "address": "Minister Cremerstraat 10A", "resolved_date": "2026-05-19", "days_open": 0}, {"id": "f47ad2d514868a6b", "lng": 6.581965685, "lat": 53.019461653, "category": "Openbaar groen en water", "category_slug": "openbaar-groen-en-water", "subcategory": "Sloot", "subcategory_slug": "sloot", "created_at": "2026-05-15T16:05:20.534749+00:00", "wijk": "Marsdijk", "address": "Hoogbree 80", "resolved_date": "2026-05-19", "days_open": 3}, {"id": "4f74b2d0efd6c0dc", "lng": 6.58462166, "lat": 53.02255194, "category": "Openbaar groen en water", "category_slug": "openbaar-groen-en-water", "subcategory": "Maaien", "subcategory_slug": "maaien", "created_at": "2026-05-18T09:44:24.882151+00:00", "wijk": "Marsdijk", "address": "Jan Palachweg 89", "resolved_date": "2026-05-19", "days_open": 0}, {"id": "4ce5fa349234638e", "lng": 6.58696998, "lat": 53.02231272, "category": "Openbaar groen en water", "category_slug": "openbaar-groen-en-water", "subcategory": "Overig Openbaar groen en water", "subcategory_slug": "overig-openbaar-groen-en-water", "created_at": "2026-05-13T18:26:08.110164+00:00", "wijk": "Marsdijk", "address": "Boerhoorndreef 127", "resolved_date": "2026-05-19", "days_open": 5}, {"id": "1f6afbd672797b36", "lng": 6.59045577, "lat": 53.019230211, "category": "Wegen, verkeer en straatmeubilair", "category_slug": "wegen-verkeer-en-straatmeubilair", "subcategory": "Onveilige verkeerssituatie", "subcategory_slug": "onveilige-verkeerssituatie", "created_at": "2026-04-30T14:08:39.941585+00:00", "wijk": "Marsdijk", "address": "Weidebeemd 79", "resolved_date": "2026-05-19", "days_open": 18}, {"id": "ec5916d3223483bf", "lng": 6.58570068, "lat": 53.014771643, "category": "Openbaar groen en water", "category_slug": "openbaar-groen-en-water", "subcategory": "Overig Openbaar groen en water", "subcategory_slug": "overig-openbaar-groen-en-water", "created_at": "2026-05-18T08:50:20.479094+00:00", "wijk": "Marsdijk", "address": "Muddegoorn 50", "resolved_date": "2026-05-19", "days_open": 0}, {"id": "7917caa4e9fd3453", "lng": 6.566897353, "lat": 53.013644, "category": "Wegen, verkeer en straatmeubilair", "category_slug": "wegen-verkeer-en-straatmeubilair", "subcategory": "Onveilige verkeerssituatie", "subcategory_slug": "onveilige-verkeerssituatie", "created_at": "2026-02-21T11:31:20.206506+00:00", "wijk": "Peelo", "address": "Binnenes 65", "resolved_date": "2026-05-19", "days_open": 86}, {"id": "0238c8f44f5655dd", "lng": 6.567026675, "lat": 53.013621409, "category": "Wegen, verkeer en straatmeubilair", "category_slug": "wegen-verkeer-en-straatmeubilair", "subcategory": "Onveilige verkeerssituatie", "subcategory_slug": "onveilige-verkeerssituatie", "created_at": "2026-02-21T11:37:37.413227+00:00", "wijk": "Peelo", "address": "Buitenes 19", "resolved_date": "2026-05-19", "days_open": 86}, {"id": "072d09a43dc05f67", "lng": 6.566998397, "lat": 53.013588596, "category": "Wegen, verkeer en straatmeubilair", "category_slug": "wegen-verkeer-en-straatmeubilair", "subcategory": "Onveilige verkeerssituatie", "subcategory_slug": "onveilige-verkeerssituatie", "created_at": "2026-02-21T14:36:28.079302+00:00", "wijk": "Peelo", "address": "Buitenes 15", "resolved_date": "2026-05-19", "days_open": 86}, {"id": "8a4d69285f0b0541", "lng": 6.535556316, "lat": 52.986756502, "category": "Openbaar groen en water", "category_slug": "openbaar-groen-en-water", "subcategory": "Maaien", "subcategory_slug": "maaien", "created_at": "2026-05-18T10:30:41.139257+00:00", "wijk": "Assen-West", "address": "Salland 80", "resolved_date": "2026-05-19", "days_open": 0}, {"id": "152b60ea8308a415", "lng": 6.519540846, "lat": 52.998827843, "category": "Wegen, verkeer en straatmeubilair", "category_slug": "wegen-verkeer-en-straatmeubilair", "subcategory": "Onderhoud straat, fietspad en stoep", "subcategory_slug": "onderhoud-straat-fietspad-en-stoep", "created_at": "2026-05-13T11:16:14.234705+00:00", "wijk": "Kloosterveen", "address": "Hertenlaan 55", "resolved_date": "2026-05-19", "days_open": 5}, {"id": "509cbab19c719477", "lng": 6.55171496, "lat": 53.00873143, "category": "Afval", "category_slug": "afval", "subcategory": "Container", "subcategory_slug": "container", "created_at": "2026-05-19T06:54:16.526509+00:00", "wijk": "Noorderpark", "address": null, "resolved_date": "2026-05-19", "days_open": 0}, {"id": "a3145b35a6a7aa80", "lng": 6.532731517, "lat": 52.988996061, "category": "Openbaar groen en water", "category_slug": "openbaar-groen-en-water", "subcategory": "Onkruid", "subcategory_slug": "onkruid", "created_at": "2026-05-15T13:42:33.292777+00:00", "wijk": "Assen-West", "address": "Fivelingostraat 88", "resolved_date": "2026-05-19", "days_open": 3}, {"id": "4d1098c3c5548c43", "lng": 6.5310398, "lat": 52.99081331, "category": "Openbaar groen en water", "category_slug": "openbaar-groen-en-water", "subcategory": "Snoeien", "subcategory_slug": "snoeien", "created_at": "2026-05-18T12:03:49.542857+00:00", "wijk": "Kloosterveen", "address": "Oldambtstraat 33", "resolved_date": "2026-05-19", "days_open": 0}, {"id": "4d297b52b6308a14", "lng": 6.517419219, "lat": 52.994917983, "category": "overig", "category_slug": "overig", "subcategory": "overig", "subcategory_slug": "overig", "created_at": "2026-05-19T07:55:02.545474+00:00", "wijk": "Kloosterveen", "address": "Jupiterstraat 41", "resolved_date": "2026-05-19", "days_open": 0}, {"id": "507195634244cfbb", "lng": 6.50770112, "lat": 53.00757029, "category": "Openbaar groen en water", "category_slug": "openbaar-groen-en-water", "subcategory": "Snoeien", "subcategory_slug": "snoeien", "created_at": "2026-05-19T07:09:35.805806+00:00", "wijk": "Kloosterveen", "address": null, "resolved_date": "2026-05-20", "days_open": 0}, {"id": "8e8b407b76a130a3", "lng": 6.536082903, "lat": 53.002431627, "category": "Overlast Openbare Ruimte", "category_slug": "overlast-openbare-ruimte", "subcategory": "Overig Overlast Openbare Ruimte", "subcategory_slug": "overig-overlast-openbare-ruimte", "created_at": "2026-05-09T18:47:31.566392+00:00", "wijk": "Lariks", "address": "Scheldestraat 1", "resolved_date": "2026-05-20", "days_open": 10}, {"id": "3debaf2926f08c07", "lng": 6.537219286, "lat": 53.004898563, "category": "Civiele Constructie", "category_slug": "civiele-constructie", "subcategory": "Brug", "subcategory_slug": "brug", "created_at": "2026-05-19T07:34:54.848208+00:00", "wijk": "Lariks", "address": "Sambrestraat 13", "resolved_date": "2026-05-20", "days_open": 0}, {"id": "ce6cd98e23788d86", "lng": 6.53935686, "lat": 53.00512157, "category": "Afval", "category_slug": "afval", "subcategory": "Veeg en zwerfvuil", "subcategory_slug": "veeg-en-zwerfvuil", "created_at": "2026-05-19T07:24:06.578401+00:00", "wijk": "Lariks", "address": "Dommelstraat 46", "resolved_date": "2026-05-20", "days_open": 0}, {"id": "2b3f4b387f0f3689", "lng": 6.54041792, "lat": 53.00018649, "category": "Overlast Dier", "category_slug": "overlast-dier", "subcategory": "Hond", "subcategory_slug": "hond", "created_at": "2026-03-19T15:37:17.98845+00:00", "wijk": "Lariks", "address": "Eem 36", "resolved_date": "2026-05-20", "days_open": 61}, {"id": "7c50acdbc989452c", "lng": 6.54036954, "lat": 53.000228978, "category": "Overlast Dier", "category_slug": "overlast-dier", "subcategory": "Hond", "subcategory_slug": "hond", "created_at": "2026-03-07T13:53:49.022991+00:00", "wijk": "Lariks", "address": "Eem 38", "resolved_date": "2026-05-20", "days_open": 73}, {"id": "5e742478cd3fb455", "lng": 6.544361427, "lat": 53.00188345, "category": "Wegen, verkeer en straatmeubilair", "category_slug": "wegen-verkeer-en-straatmeubilair", "subcategory": "Onveilige verkeerssituatie", "subcategory_slug": "onveilige-verkeerssituatie", "created_at": "2026-05-16T18:00:47.060755+00:00", "wijk": "Lariks", "address": "Menso Altingstraat 12", "resolved_date": "2026-05-20", "days_open": 3}, {"id": "dc6ba6cef713e7e0", "lng": 6.549149752, "lat": 53.000251577, "category": "Wegen, verkeer en straatmeubilair", "category_slug": "wegen-verkeer-en-straatmeubilair", "subcategory": "Overig Wegen, verkeer en straatmeubilair", "subcategory_slug": "overig-wegen-verkeer-en-straatmeubilair", "created_at": "2026-05-19T08:01:35.655891+00:00", "wijk": "Noorderpark", "address": "Nobellaan 241A", "resolved_date": "2026-05-20", "days_open": 0}, {"id": "6ac8870919354b75", "lng": 6.54992705, "lat": 53.00260175, "category": "Openbaar groen en water", "category_slug": "openbaar-groen-en-water", "subcategory": "Boom", "subcategory_slug": "boom", "created_at": "2026-05-18T09:49:04.893043+00:00", "wijk": "Noorderpark", "address": "Talmastraat 56", "resolved_date": "2026-05-20", "days_open": 1}, {"id": "6ac0becaa1670a9c", "lng": 6.55738943, "lat": 53.00033612, "category": "Overlast Openbare Ruimte", "category_slug": "overlast-openbare-ruimte", "subcategory": "Overig Overlast Openbare Ruimte", "subcategory_slug": "overig-overlast-openbare-ruimte", "created_at": "2026-05-13T14:20:18.431867+00:00", "wijk": "Noorderpark", "address": "Mr. H. Smeengestraat 15", "resolved_date": "2026-05-20", "days_open": 6}, {"id": "124fec6c46a54feb", "lng": 6.56011184, "lat": 53.00148281, "category": "Afval", "category_slug": "afval", "subcategory": "Dumping", "subcategory_slug": "dumping", "created_at": "2026-05-18T13:45:55.910162+00:00", "wijk": "Noorderpark", "address": "Ir. J.W. Albardastraat 21", "resolved_date": "2026-05-20", "days_open": 1}, {"id": "885c41366d225459", "lng": 6.56220663, "lat": 53.01062236, "category": "Wegen, verkeer en straatmeubilair", "category_slug": "wegen-verkeer-en-straatmeubilair", "subcategory": "Onderhoud straat, fietspad en stoep", "subcategory_slug": "onderhoud-straat-fietspad-en-stoep", "created_at": "2026-05-13T07:38:25.613321+00:00", "wijk": "Noorderpark", "address": "Vivaldilaan 72", "resolved_date": "2026-05-20", "days_open": 6}, {"id": "79d3bef16d64c005", "lng": 6.546049118, "lat": 53.0105553, "category": "Afval", "category_slug": "afval", "subcategory": "Overig Afval", "subcategory_slug": "overig-afval", "created_at": "2026-05-18T09:46:21.949421+00:00", "wijk": "Wijk 04 Pittelo", "address": "Neckarstraat 2", "resolved_date": "2026-05-20", "days_open": 1}, {"id": "cd814d6580d292ec", "lng": 6.546833664, "lat": 53.008429874, "category": "Overlast Openbare Ruimte", "category_slug": "overlast-openbare-ruimte", "subcategory": "Overig Overlast Openbare Ruimte", "subcategory_slug": "overig-overlast-openbare-ruimte", "created_at": "2026-05-08T15:57:08.277166+00:00", "wijk": "Lariks", "address": "Rijnstraat 3", "resolved_date": "2026-05-20", "days_open": 11}, {"id": "30428299c7e1fce2", "lng": 6.541666389, "lat": 53.008452468, "category": "Afval", "category_slug": "afval", "subcategory": "Gevaarlijk afval", "subcategory_slug": "gevaarlijk-afval", "created_at": "2026-05-19T07:25:01.775983+00:00", "wijk": "Lariks", "address": "Rhônepad 97", "resolved_date": "2026-05-20", "days_open": 0}, {"id": "b7d0bed13f9ff8ca", "lng": 6.53904852, "lat": 53.00923157, "category": "Wegen, verkeer en straatmeubilair", "category_slug": "wegen-verkeer-en-straatmeubilair", "subcategory": "Onveilige verkeerssituatie", "subcategory_slug": "onveilige-verkeerssituatie", "created_at": "2026-05-19T06:56:03.409027+00:00", "wijk": "Lariks", "address": "Rijnstraat 41", "resolved_date": "2026-05-20", "days_open": 0}, {"id": "d409329674ff265a", "lng": 6.560437381, "lat": 53.015738511, "category": "Openbaar groen en water", "category_slug": "openbaar-groen-en-water", "subcategory": "Overig Openbaar groen en water", "subcategory_slug": "overig-openbaar-groen-en-water", "created_at": "2026-05-18T05:23:46.561353+00:00", "wijk": "Peelo", "address": "Ruiterakker 138", "resolved_date": "2026-05-20", "days_open": 1}, {"id": "f85d4b233578a85e", "lng": 6.57048296, "lat": 53.02002354, "category": "Riolering", "category_slug": "riolering", "subcategory": "Wateroverlast", "subcategory_slug": "wateroverlast", "created_at": "2026-05-19T07:17:24.794251+00:00", "wijk": "Peelo", "address": "Groenkampen 110", "resolved_date": "2026-05-20", "days_open": 0}, {"id": "70eeec18aa5c16a6", "lng": 6.59198258, "lat": 53.01279903, "category": "Afval", "category_slug": "afval", "subcategory": "Dumping", "subcategory_slug": "dumping", "created_at": "2025-06-18T07:47:34.63123+00:00", "wijk": "Marsdijk", "address": "Stoepveldsingel 100", "resolved_date": "2026-05-20", "days_open": 335}, {"id": "d8c72548627238c9", "lng": 6.5637796, "lat": 53.0113317, "category": "Afval", "category_slug": "afval", "subcategory": "Overig Afval", "subcategory_slug": "overig-afval", "created_at": "2026-05-18T22:13:25.205871+00:00", "wijk": "Noorderpark", "address": "Smetanalaan 364", "resolved_date": "2026-05-20", "days_open": 1}, {"id": "86e2fa4229b2928c", "lng": 6.563327044, "lat": 53.011298487, "category": "Overlast Openbare Ruimte", "category_slug": "overlast-openbare-ruimte", "subcategory": "Overig Overlast Openbare Ruimte", "subcategory_slug": "overig-overlast-openbare-ruimte", "created_at": "2026-05-16T18:33:52.288499+00:00", "wijk": "Noorderpark", "address": "Smetanalaan 358", "resolved_date": "2026-05-20", "days_open": 3}, {"id": "3ee31b63817ced17", "lng": 6.5870791, "lat": 52.99979918, "category": "Openbaar groen en water", "category_slug": "openbaar-groen-en-water", "subcategory": "Overig Openbaar groen en water", "subcategory_slug": "overig-openbaar-groen-en-water", "created_at": "2026-05-13T13:10:46.960372+00:00", "wijk": "Assen-Oost", "address": "Vreebergen 11", "resolved_date": "2026-05-20", "days_open": 6}, {"id": "e07f46cb06de76c0", "lng": 6.582479775, "lat": 52.99559548, "category": "Afval", "category_slug": "afval", "subcategory": "Veeg en zwerfvuil", "subcategory_slug": "veeg-en-zwerfvuil", "created_at": "2026-01-26T11:16:00.038957+00:00", "wijk": "Assen-Oost", "address": "Tooroppad 45", "resolved_date": "2026-05-20", "days_open": 113}, {"id": "7542f19075caa6a8", "lng": 6.58579539, "lat": 52.99321557, "category": "Wegen, verkeer en straatmeubilair", "category_slug": "wegen-verkeer-en-straatmeubilair", "subcategory": "Speelvoorziening", "subcategory_slug": "speelvoorziening", "created_at": "2026-04-21T08:05:46.756634+00:00", "wijk": "Assen-Oost", "address": "Amelte 1A", "resolved_date": "2026-05-20", "days_open": 28}, {"id": "37df91336fb75963", "lng": 6.57971528, "lat": 52.99146999, "category": "Overlast Openbare Ruimte", "category_slug": "overlast-openbare-ruimte", "subcategory": "Overig Overlast Openbare Ruimte", "subcategory_slug": "overig-overlast-openbare-ruimte", "created_at": "2025-04-30T11:56:09.809179+00:00", "wijk": "Assen-Oost", "address": "Adelaarsweg 4", "resolved_date": "2026-05-20", "days_open": 384}, {"id": "3bd646232474890d", "lng": 6.57096626, "lat": 52.98851416, "category": "Openbaar groen en water", "category_slug": "openbaar-groen-en-water", "subcategory": "Onkruid", "subcategory_slug": "onkruid", "created_at": "2026-02-11T15:44:49.721456+00:00", "wijk": "Centrum", "address": "Anemoonstraat 2", "resolved_date": "2026-05-20", "days_open": 97}, {"id": "08408aa36a13d8b0", "lng": 6.563429832, "lat": 52.993426266, "category": "Overlast Openbare Ruimte", "category_slug": "overlast-openbare-ruimte", "subcategory": "Overig Overlast Openbare Ruimte", "subcategory_slug": "overig-overlast-openbare-ruimte", "created_at": "2026-05-19T07:57:56.988874+00:00", "wijk": "Centrum", "address": "Brink 33", "resolved_date": "2026-05-20", "days_open": 0}, {"id": "2803bd1afa6c709c", "lng": 6.570213277, "lat": 52.994950896, "category": "Wegen, verkeer en straatmeubilair", "category_slug": "wegen-verkeer-en-straatmeubilair", "subcategory": "Onderhoud straat, fietspad en stoep", "subcategory_slug": "onderhoud-straat-fietspad-en-stoep", "created_at": "2026-05-18T08:54:41.893018+00:00", "wijk": "Centrum", "address": "Prins Hendrikstraat 21", "resolved_date": "2026-05-20", "days_open": 1}, {"id": "8ef9e6e3a7e411b7", "lng": 6.577307582, "lat": 52.992619039, "category": "Afval", "category_slug": "afval", "subcategory": "Gevaarlijk afval", "subcategory_slug": "gevaarlijk-afval", "created_at": "2026-05-19T08:16:41.858502+00:00", "wijk": "Assen-Oost", "address": "Mezenlaan 1", "resolved_date": "2026-05-20", "days_open": 0}, {"id": "886c4aca131481ea", "lng": 6.563596129, "lat": 52.99791256, "category": "Wegen, verkeer en straatmeubilair", "category_slug": "wegen-verkeer-en-straatmeubilair", "subcategory": "Overig Wegen, verkeer en straatmeubilair", "subcategory_slug": "overig-wegen-verkeer-en-straatmeubilair", "created_at": "2026-05-18T13:31:28.90895+00:00", "wijk": "Noorderpark", "address": "Zaagmolen 20", "resolved_date": "2026-05-20", "days_open": 1}, {"id": "6bfaf69e2c7495f1", "lng": 6.55613731, "lat": 52.99919804, "category": "Openbaar groen en water", "category_slug": "openbaar-groen-en-water", "subcategory": "Snoeien", "subcategory_slug": "snoeien", "created_at": "2026-05-17T09:35:45.747615+00:00", "wijk": "Noorderpark", "address": "Mr. P.J. Troelstralaan 139A", "resolved_date": "2026-05-20", "days_open": 2}, {"id": "ad9eb10121cccf4f", "lng": 6.55484366, "lat": 52.99761998, "category": "Afval", "category_slug": "afval", "subcategory": "Dumping", "subcategory_slug": "dumping", "created_at": "2026-05-19T07:39:09.633687+00:00", "wijk": "Noorderpark", "address": "Nobellaan 6", "resolved_date": "2026-05-20", "days_open": 0}, {"id": "dc4a2322868a7844", "lng": 6.556905806, "lat": 52.996836366, "category": "Overlast Openbare Ruimte", "category_slug": "overlast-openbare-ruimte", "subcategory": "Overig Overlast Openbare Ruimte", "subcategory_slug": "overig-overlast-openbare-ruimte", "created_at": "2026-05-16T11:33:42.698595+00:00", "wijk": "Centrum", "address": "Kanaalstraat 10", "resolved_date": "2026-05-20", "days_open": 3}, {"id": "4d64f46c64fb179e", "lng": 6.550284326, "lat": 52.995639606, "category": "Overlast Dier", "category_slug": "overlast-dier", "subcategory": "Hond", "subcategory_slug": "hond", "created_at": "2026-05-11T08:12:24.122103+00:00", "wijk": "Lariks", "address": "Zeemanstraat 1", "resolved_date": "2026-05-20", "days_open": 8}, {"id": "6ef7d5bf875ed494", "lng": 6.54717843, "lat": 52.9961758, "category": "Openbaar groen en water", "category_slug": "openbaar-groen-en-water", "subcategory": "Snoeien", "subcategory_slug": "snoeien", "created_at": "2026-05-18T08:15:23.130016+00:00", "wijk": "Lariks", "address": "van der Waalspad 15", "resolved_date": "2026-05-20", "days_open": 1}, {"id": "a0a01e626155cdff", "lng": 6.53774259, "lat": 52.99816324, "category": "Wegen, verkeer en straatmeubilair", "category_slug": "wegen-verkeer-en-straatmeubilair", "subcategory": "Verkeersbord", "subcategory_slug": "verkeersbord", "created_at": "2026-04-14T07:13:08.931852+00:00", "wijk": "Lariks", "address": "Epe 83", "resolved_date": "2026-05-20", "days_open": 35}, {"id": "e212ae062421225b", "lng": 6.555855274, "lat": 52.991958716, "category": "Wegen, verkeer en straatmeubilair", "category_slug": "wegen-verkeer-en-straatmeubilair", "subcategory": "Overig Wegen, verkeer en straatmeubilair", "subcategory_slug": "overig-wegen-verkeer-en-straatmeubilair", "created_at": "2026-05-19T07:17:06.306674+00:00", "wijk": "Centrum", "address": "Prinses Irenestraat 8", "resolved_date": "2026-05-20", "days_open": 0}, {"id": "c6f1aac69786e56a", "lng": 6.555780172, "lat": 52.9920572, "category": "Wegen, verkeer en straatmeubilair", "category_slug": "wegen-verkeer-en-straatmeubilair", "subcategory": "Onderhoud straat, fietspad en stoep", "subcategory_slug": "onderhoud-straat-fietspad-en-stoep", "created_at": "2026-05-19T07:23:43.491238+00:00", "wijk": "Centrum", "address": "Prinses Irenestraat 6", "resolved_date": "2026-05-20", "days_open": 0}, {"id": "776a3eb46f055b56", "lng": 6.536834911, "lat": 52.981851601, "category": "Wegen, verkeer en straatmeubilair", "category_slug": "wegen-verkeer-en-straatmeubilair", "subcategory": "Straatverlichting", "subcategory_slug": "straatverlichting", "created_at": "2026-05-19T07:56:44.601222+00:00", "wijk": "Assen-West", "address": "De Vallei 49", "resolved_date": "2026-05-20", "days_open": 0}, {"id": "8ce218015e932821", "lng": 6.504609227, "lat": 52.997365343, "category": "Openbaar groen en water", "category_slug": "openbaar-groen-en-water", "subcategory": "Beplanting", "subcategory_slug": "beplanting", "created_at": "2026-05-14T15:08:37.799606+00:00", "wijk": "Kloosterveen", "address": "Rosa Spierweg 43", "resolved_date": "2026-05-20", "days_open": 5}, {"id": "1f370738883eb7ec", "lng": 6.49781906, "lat": 52.99887568, "category": "Afval", "category_slug": "afval", "subcategory": "Minicontainer", "subcategory_slug": "minicontainer", "created_at": "2026-05-19T08:10:00.235376+00:00", "wijk": "Kloosterveen", "address": "Spade 15", "resolved_date": "2026-05-20", "days_open": 0}, {"id": "90ec8124d3750be9", "lng": 6.504795774, "lat": 53.0021945, "category": "Wegen, verkeer en straatmeubilair", "category_slug": "wegen-verkeer-en-straatmeubilair", "subcategory": "Overig Wegen, verkeer en straatmeubilair", "subcategory_slug": "overig-wegen-verkeer-en-straatmeubilair", "created_at": "2026-05-20T08:25:03.17381+00:00", "wijk": "Kloosterveen", "address": "Aletta Jacobsweg 17", "resolved_date": "2026-05-21", "days_open": 0}, {"id": "44ff6556a81667d3", "lng": 6.51358366, "lat": 53.000374255, "category": "Overlast Openbare Ruimte", "category_slug": "overlast-openbare-ruimte", "subcategory": "Overig Overlast Openbare Ruimte", "subcategory_slug": "overig-overlast-openbare-ruimte", "created_at": "2026-05-19T07:57:56.988874+00:00", "wijk": "Kloosterveen", "address": "Traverse 44", "resolved_date": "2026-05-21", "days_open": 1}, {"id": "bd62808f7799fb43", "lng": 6.539778113, "lat": 53.004023761, "category": "Openbaar groen en water", "category_slug": "openbaar-groen-en-water", "subcategory": "Snoeien", "subcategory_slug": "snoeien", "created_at": "2026-05-20T07:48:45.071863+00:00", "wijk": "Lariks", "address": "Lekstraat 97", "resolved_date": "2026-05-21", "days_open": 0}, {"id": "e354c3b3d5c1305a", "lng": 6.539382488, "lat": 53.006583557, "category": "Riolering", "category_slug": "riolering", "subcategory": "Wateroverlast", "subcategory_slug": "wateroverlast", "created_at": "2026-05-19T11:15:38.617587+00:00", "wijk": "Lariks", "address": "Donaustraat 135", "resolved_date": "2026-05-21", "days_open": 1}, {"id": "5488d1bfb7865263", "lng": 6.54396799, "lat": 53.00652395, "category": "Openbaar groen en water", "category_slug": "openbaar-groen-en-water", "subcategory": "Snoeien", "subcategory_slug": "snoeien", "created_at": "2026-05-18T09:18:24.010925+00:00", "wijk": "Lariks", "address": "Donstraat 2", "resolved_date": "2026-05-21", "days_open": 2}, {"id": "284e2710ad25f6d5", "lng": 6.562145054, "lat": 53.005661212, "category": "Afval", "category_slug": "afval", "subcategory": "Minicontainer", "subcategory_slug": "minicontainer", "created_at": "2026-05-20T07:18:36.68602+00:00", "wijk": "Noorderpark", "address": "Heemskerkstraat 21", "resolved_date": "2026-05-21", "days_open": 0}, {"id": "4f2eacc1019ee600", "lng": 6.559932779, "lat": 53.007374965, "category": "Wegen, verkeer en straatmeubilair", "category_slug": "wegen-verkeer-en-straatmeubilair", "subcategory": "Straatverlichting", "subcategory_slug": "straatverlichting", "created_at": "2026-05-13T20:34:11.28216+00:00", "wijk": "Noorderpark", "address": "Obrechtlaan 22", "resolved_date": "2026-05-21", "days_open": 7}, {"id": "fadeb2630997d19c", "lng": 6.560381616, "lat": 53.010758649, "category": "Wegen, verkeer en straatmeubilair", "category_slug": "wegen-verkeer-en-straatmeubilair", "subcategory": "Straatverlichting", "subcategory_slug": "straatverlichting", "created_at": "2026-05-13T20:44:03.5048+00:00", "wijk": "Noorderpark", "address": "Schubertlaan 53", "resolved_date": "2026-05-21", "days_open": 7}, {"id": "64b652aaee4af2d7", "lng": 6.5391893, "lat": 53.00835848, "category": "Overlast Openbare Ruimte", "category_slug": "overlast-openbare-ruimte", "subcategory": "Overig Overlast Openbare Ruimte", "subcategory_slug": "overig-overlast-openbare-ruimte", "created_at": "2026-05-19T07:07:46.93809+00:00", "wijk": "Lariks", "address": "Elbestraat 4", "resolved_date": "2026-05-21", "days_open": 1}, {"id": "486a809b6dafbdbe", "lng": 6.55956707, "lat": 53.01591617, "category": "Openbaar groen en water", "category_slug": "openbaar-groen-en-water", "subcategory": "Snoeien", "subcategory_slug": "snoeien", "created_at": "2026-05-08T06:58:04.655484+00:00", "wijk": "Peelo", "address": "Walakker 3", "resolved_date": "2026-05-21", "days_open": 12}, {"id": "b1ee2cc66d10fa49", "lng": 6.559875708, "lat": 53.021825745, "category": "Openbaar groen en water", "category_slug": "openbaar-groen-en-water", "subcategory": "Exoten", "subcategory_slug": "exoten", "created_at": "2026-05-20T05:02:06.395237+00:00", "wijk": "Peelo", "address": "Iemstukken 98", "resolved_date": "2026-05-21", "days_open": 0}, {"id": "d32894e565e9d7ea", "lng": 6.56927486, "lat": 53.01999055, "category": "Openbaar groen en water", "category_slug": "openbaar-groen-en-water", "subcategory": "Overig Openbaar groen en water", "subcategory_slug": "overig-openbaar-groen-en-water", "created_at": "2026-05-16T17:10:48.901322+00:00", "wijk": "Peelo", "address": "Groenkampen 123", "resolved_date": "2026-05-21", "days_open": 4}, {"id": "01a46a232dae7c31", "lng": 6.58175305, "lat": 53.02121461, "category": "Openbaar groen en water", "category_slug": "openbaar-groen-en-water", "subcategory": "Maaien", "subcategory_slug": "maaien", "created_at": "2026-05-19T09:16:17.116525+00:00", "wijk": "Marsdijk", "address": "Middenbree 27", "resolved_date": "2026-05-21", "days_open": 1}, {"id": "ad446b80c8c8629f", "lng": 6.582423467, "lat": 53.02152035, "category": "Openbaar groen en water", "category_slug": "openbaar-groen-en-water", "subcategory": "Overig Openbaar groen en water", "subcategory_slug": "overig-openbaar-groen-en-water", "created_at": "2026-05-19T07:00:45.122865+00:00", "wijk": "Marsdijk", "address": "Middenbree 21", "resolved_date": "2026-05-21", "days_open": 1}, {"id": "88f00546f485a608", "lng": 6.58772556, "lat": 53.0086044, "category": "overig", "category_slug": "overig", "subcategory": "overig", "subcategory_slug": "overig", "created_at": "2026-05-19T22:17:14.262855+00:00", "wijk": "Marsdijk", "address": "Pottenbakkerstraat 1A", "resolved_date": "2026-05-21", "days_open": 1}, {"id": "c7c7770c1962c5d7", "lng": 6.591849247, "lat": 53.001342095, "category": "Wegen, verkeer en straatmeubilair", "category_slug": "wegen-verkeer-en-straatmeubilair", "subcategory": "Straatverlichting", "subcategory_slug": "straatverlichting", "created_at": "2026-03-14T19:13:14.738752+00:00", "wijk": "Assen-Oost", "address": "Lonerstraat 173", "resolved_date": "2026-05-21", "days_open": 67}, {"id": "bf0bc8ee718e709e", "lng": 6.596753597, "lat": 53.01247245, "category": "overig", "category_slug": "overig", "subcategory": "overig", "subcategory_slug": "overig", "created_at": "2026-05-20T07:55:08.460736+00:00", "wijk": "Marsdijk", "address": "Juweelstoep 2", "resolved_date": "2026-05-21", "days_open": 0}, {"id": "d4a3ba344244cf73", "lng": 6.538801789, "lat": 52.960713414, "category": "Afval", "category_slug": "afval", "subcategory": "Gevaarlijk afval", "subcategory_slug": "gevaarlijk-afval", "created_at": "2026-05-19T12:22:12.515557+00:00", "wijk": "Buitengebied", "address": "De Haar 11A", "resolved_date": "2026-05-21", "days_open": 1}, {"id": "47585c80cc69e604", "lng": 6.580933928, "lat": 52.997670419, "category": "Openbaar groen en water", "category_slug": "openbaar-groen-en-water", "subcategory": "Maaien", "subcategory_slug": "maaien", "created_at": "2026-05-18T14:35:37.432337+00:00", "wijk": "Assen-Oost", "address": "Ruysdaelstraat 57", "resolved_date": "2026-05-21", "days_open": 2}, {"id": "3a8b0ebb6b106cec", "lng": 6.58579539, "lat": 52.99321557, "category": "Openbaar groen en water", "category_slug": "openbaar-groen-en-water", "subcategory": "Maaien", "subcategory_slug": "maaien", "created_at": "2026-05-13T12:28:51.100396+00:00", "wijk": "Assen-Oost", "address": "Amelte 1A", "resolved_date": "2026-05-21", "days_open": 7}, {"id": "c40736bf3f4cb14e", "lng": 6.579155624, "lat": 52.987058266, "category": "Overlast Openbare Ruimte", "category_slug": "overlast-openbare-ruimte", "subcategory": "Overig Overlast Openbare Ruimte", "subcategory_slug": "overig-overlast-openbare-ruimte", "created_at": "2026-05-06T16:52:21.543818+00:00", "wijk": "Assen-Oost", "address": "Gentiaanstraat 1", "resolved_date": "2026-05-21", "days_open": 14}, {"id": "46242001cf68e4eb", "lng": 6.579179764, "lat": 52.98705188, "category": "overig", "category_slug": "overig", "subcategory": "overig", "subcategory_slug": "overig", "created_at": "2026-05-20T05:40:30.677595+00:00", "wijk": "Assen-Oost", "address": "Gentiaanstraat 1", "resolved_date": "2026-05-21", "days_open": 0}, {"id": "30488c3b767b409f", "lng": 6.566942464, "lat": 52.994839786, "category": "Openbaar groen en water", "category_slug": "openbaar-groen-en-water", "subcategory": "Overig Openbaar groen en water", "subcategory_slug": "overig-openbaar-groen-en-water", "created_at": "2026-05-17T17:02:31.7253+00:00", "wijk": "Centrum", "address": "Doevenkamp 24", "resolved_date": "2026-05-21", "days_open": 3}, {"id": "ddd2e17f4586dcd5", "lng": 6.56010747, "lat": 52.986794716, "category": "Openbaar groen en water", "category_slug": "openbaar-groen-en-water", "subcategory": "Overig Openbaar groen en water", "subcategory_slug": "overig-openbaar-groen-en-water", "created_at": "2026-05-19T12:01:19.290055+00:00", "wijk": "Centrum", "address": "Beilerstraat 169", "resolved_date": "2026-05-21", "days_open": 1}, {"id": "27d1c6be35324c92", "lng": 6.528177559, "lat": 52.988057451, "category": "overig", "category_slug": "overig", "subcategory": "overig", "subcategory_slug": "overig", "created_at": "2026-05-20T07:03:48.309483+00:00", "wijk": "Assen-West", "address": "Witterhoofdweg 1G", "resolved_date": "2026-05-21", "days_open": 0}, {"id": "53f1c96b68c42c44", "lng": 6.517690122, "lat": 52.994935741, "category": "Openbaar groen en water", "category_slug": "openbaar-groen-en-water", "subcategory": "Maaien", "subcategory_slug": "maaien", "created_at": "2026-05-19T07:51:52.721344+00:00", "wijk": "Kloosterveen", "address": "Jupiterstraat 41", "resolved_date": "2026-05-21", "days_open": 1}, {"id": "7e75dbc7c5afb0cc", "lng": 6.530572772, "lat": 52.994714974, "category": "Overlast Openbare Ruimte", "category_slug": "overlast-openbare-ruimte", "subcategory": "Overig Overlast Openbare Ruimte", "subcategory_slug": "overig-overlast-openbare-ruimte", "created_at": "2026-05-07T05:48:41.371988+00:00", "wijk": "Kloosterveen", "address": "Balkengracht 2", "resolved_date": "2026-05-21", "days_open": 13}, {"id": "083704eac30a656f", "lng": 6.513737964, "lat": 52.999186786, "category": "Afval", "category_slug": "afval", "subcategory": "Dumping", "subcategory_slug": "dumping", "created_at": "2026-05-20T05:53:05.026908+00:00", "wijk": "Kloosterveen", "address": "Zuidergracht 3", "resolved_date": "2026-05-21", "days_open": 0}, {"id": "0722fc0c7b047a1a", "lng": 6.506089568, "lat": 53.00235965, "category": "Overlast Openbare Ruimte", "category_slug": "overlast-openbare-ruimte", "subcategory": "Overig Overlast Openbare Ruimte", "subcategory_slug": "overig-overlast-openbare-ruimte", "created_at": "2026-05-06T08:16:52.360157+00:00", "wijk": "Kloosterveen", "address": "Aletta Jacobsweg 1", "resolved_date": "2026-05-22", "days_open": 15}, {"id": "10fa129e0b27af99", "lng": 6.511740983, "lat": 53.004576567, "category": "Overlast Openbare Ruimte", "category_slug": "overlast-openbare-ruimte", "subcategory": "Overig Overlast Openbare Ruimte", "subcategory_slug": "overig-overlast-openbare-ruimte", "created_at": "2026-05-08T09:25:18.143981+00:00", "wijk": "Kloosterveen", "address": "Hildegard van Bingenweg 67", "resolved_date": "2026-05-22", "days_open": 13}, {"id": "b383e9784a7d050e", "lng": 6.53087511, "lat": 53.000838355, "category": "Wegen, verkeer en straatmeubilair", "category_slug": "wegen-verkeer-en-straatmeubilair", "subcategory": "Overig Wegen, verkeer en straatmeubilair", "subcategory_slug": "overig-wegen-verkeer-en-straatmeubilair", "created_at": "2026-05-20T18:00:04.90739+00:00", "wijk": "Kloosterveen", "address": "Mien Ruysweg 1", "resolved_date": "2026-05-22", "days_open": 1}, {"id": "62c39174c811165d", "lng": 6.544794766, "lat": 53.001490796, "category": "Afval", "category_slug": "afval", "subcategory": "Dumping", "subcategory_slug": "dumping", "created_at": "2026-05-15T09:50:57.137226+00:00", "wijk": "Lariks", "address": "Benthem Reddingiusstraat 15A", "resolved_date": "2026-05-22", "days_open": 6}, {"id": "61344979b552fca2", "lng": 6.562335491, "lat": 53.001021877, "category": "Afval", "category_slug": "afval", "subcategory": "Overig Afval", "subcategory_slug": "overig-afval", "created_at": "2026-05-21T06:16:18.009593+00:00", "wijk": "Noorderpark", "address": "Mr. P.J. Troelstralaan 12", "resolved_date": "2026-05-22", "days_open": 0}, {"id": "97771581fd831cdf", "lng": 6.560310423, "lat": 53.001559046, "category": "Afval", "category_slug": "afval", "subcategory": "Dumping", "subcategory_slug": "dumping", "created_at": "2026-05-21T06:43:40.04257+00:00", "wijk": "Noorderpark", "address": "Ir. J.W. Albardastraat 21", "resolved_date": "2026-05-22", "days_open": 0}, {"id": "15c16f90f7f9349e", "lng": 6.548426896, "lat": 53.008124154, "category": "Afval", "category_slug": "afval", "subcategory": "Gevaarlijk afval", "subcategory_slug": "gevaarlijk-afval", "created_at": "2026-05-20T13:43:26.490985+00:00", "wijk": "Lariks", "address": "Rijnstraat 1T", "resolved_date": "2026-05-22", "days_open": 1}, {"id": "0f5a45bfc28a00b6", "lng": 6.54922843, "lat": 53.008432564, "category": "Wegen, verkeer en straatmeubilair", "category_slug": "wegen-verkeer-en-straatmeubilair", "subcategory": "Overig Wegen, verkeer en straatmeubilair", "subcategory_slug": "overig-wegen-verkeer-en-straatmeubilair", "created_at": "2026-05-21T08:27:14.708661+00:00", "wijk": "Noorderpark", "address": "Zuidenveld 133", "resolved_date": "2026-05-22", "days_open": 0}, {"id": "9c1fac5f558581ba", "lng": 6.557617486, "lat": 53.016667937, "category": "Afval", "category_slug": "afval", "subcategory": "Dumping", "subcategory_slug": "dumping", "created_at": "2026-05-20T09:10:52.831851+00:00", "wijk": "Peelo", "address": "Beuzeveen 88", "resolved_date": "2026-05-22", "days_open": 1}, {"id": "2a4121a68b9c5c46", "lng": 6.563762426, "lat": 53.023499254, "category": "Openbaar groen en water", "category_slug": "openbaar-groen-en-water", "subcategory": "Overig Openbaar groen en water", "subcategory_slug": "overig-openbaar-groen-en-water", "created_at": "2026-05-01T10:10:56.250401+00:00", "wijk": "Peelo", "address": "Afrikaweg 53", "resolved_date": "2026-05-22", "days_open": 20}, {"id": "7d85c36213377a03", "lng": 6.5688027, "lat": 53.02071417, "category": "Openbaar groen en water", "category_slug": "openbaar-groen-en-water", "subcategory": "Overig Openbaar groen en water", "subcategory_slug": "overig-openbaar-groen-en-water", "created_at": "2026-05-19T07:06:12.227636+00:00", "wijk": "Peelo", "address": "Groenkampen 71", "resolved_date": "2026-05-22", "days_open": 2}, {"id": "fa788fc9fb1efc3b", "lng": 6.56927486, "lat": 53.01999055, "category": "Wegen, verkeer en straatmeubilair", "category_slug": "wegen-verkeer-en-straatmeubilair", "subcategory": "Onderhoud straat, fietspad en stoep", "subcategory_slug": "onderhoud-straat-fietspad-en-stoep", "created_at": "2026-05-16T17:10:48.901322+00:00", "wijk": "Peelo", "address": "Groenkampen 123", "resolved_date": "2026-05-22", "days_open": 5}, {"id": "a4f7df4cd3b50723", "lng": 6.564851403, "lat": 53.017891006, "category": "Openbaar groen en water", "category_slug": "openbaar-groen-en-water", "subcategory": "Overig Openbaar groen en water", "subcategory_slug": "overig-openbaar-groen-en-water", "created_at": "2026-05-19T07:30:40.96472+00:00", "wijk": "Peelo", "address": "Dreslanden 88", "resolved_date": "2026-05-22", "days_open": 2}, {"id": "b06c296db6df31d6", "lng": 6.56509923, "lat": 53.01824335, "category": "Openbaar groen en water", "category_slug": "openbaar-groen-en-water", "subcategory": "Snoeien", "subcategory_slug": "snoeien", "created_at": "2026-05-12T10:59:46.538511+00:00", "wijk": "Peelo", "address": "Dreslanden 80", "resolved_date": "2026-05-22", "days_open": 9}, {"id": "95a9b7fe55e5d516", "lng": 6.572790719, "lat": 53.017785098, "category": "Wegen, verkeer en straatmeubilair", "category_slug": "wegen-verkeer-en-straatmeubilair", "subcategory": "Verkeersbord", "subcategory_slug": "verkeersbord", "created_at": "2026-05-19T10:00:20.697845+00:00", "wijk": "Marsdijk", "address": "Martin Luther Kingweg 1A", "resolved_date": "2026-05-22", "days_open": 2}, {"id": "a8af41b75340aeb6", "lng": 6.577622294, "lat": 53.018463266, "category": "Openbaar groen en water", "category_slug": "openbaar-groen-en-water", "subcategory": "Onkruid", "subcategory_slug": "onkruid", "created_at": "2026-05-15T07:03:02.554879+00:00", "wijk": "Marsdijk", "address": "Kaarnheugte 25", "resolved_date": "2026-05-22", "days_open": 6}, {"id": "4db3e34c9ddf1c8b", "lng": 6.58891375, "lat": 53.01876132, "category": "Openbaar groen en water", "category_slug": "openbaar-groen-en-water", "subcategory": "Maaien", "subcategory_slug": "maaien", "created_at": "2026-05-19T11:27:58.105123+00:00", "wijk": "Marsdijk", "address": "Weidebeemd 37", "resolved_date": "2026-05-22", "days_open": 2}, {"id": "64f25202e8b5ad15", "lng": 6.5781319, "lat": 53.01416, "category": "Wegen, verkeer en straatmeubilair", "category_slug": "wegen-verkeer-en-straatmeubilair", "subcategory": "Overig Wegen, verkeer en straatmeubilair", "subcategory_slug": "overig-wegen-verkeer-en-straatmeubilair", "created_at": "2026-05-19T18:38:39.460056+00:00", "wijk": "Marsdijk", "address": "Steeginghof 20", "resolved_date": "2026-05-22", "days_open": 2}, {"id": "01c6beae87ede433", "lng": 6.57920909, "lat": 53.01485924, "category": "Wegen, verkeer en straatmeubilair", "category_slug": "wegen-verkeer-en-straatmeubilair", "subcategory": "Onderhoud straat, fietspad en stoep", "subcategory_slug": "onderhoud-straat-fietspad-en-stoep", "created_at": "2026-05-18T13:41:55.788696+00:00", "wijk": "Marsdijk", "address": "Huisingehof 31", "resolved_date": "2026-05-22", "days_open": 3}, {"id": "1ef467aa4d853c73", "lng": 6.56556938, "lat": 53.01304425, "category": "Openbaar groen en water", "category_slug": "openbaar-groen-en-water", "subcategory": "Overig Openbaar groen en water", "subcategory_slug": "overig-openbaar-groen-en-water", "created_at": "2026-05-16T16:04:50.526984+00:00", "wijk": "Peelo", "address": "Buitenes 24", "resolved_date": "2026-05-22", "days_open": 5}, {"id": "bf49628dc2382187", "lng": 6.591271162, "lat": 52.998561493, "category": "Openbaar groen en water", "category_slug": "openbaar-groen-en-water", "subcategory": "Snoeien", "subcategory_slug": "snoeien", "created_at": "2026-05-19T08:59:41.405516+00:00", "wijk": "Assen-Oost", "address": "Houtlaan 41", "resolved_date": "2026-05-22", "days_open": 2}, {"id": "584dccbd0bf3f48e", "lng": 6.582937539, "lat": 52.987689782, "category": "Openbaar groen en water", "category_slug": "openbaar-groen-en-water", "subcategory": "Maaien", "subcategory_slug": "maaien", "created_at": "2026-05-21T08:07:10.237478+00:00", "wijk": "Assen-Oost", "address": "Vredeveldseweg 82", "resolved_date": "2026-05-22", "days_open": 0}, {"id": "8b43e0419f2f75ca", "lng": 6.580358738, "lat": 52.986305582, "category": "Overlast Openbare Ruimte", "category_slug": "overlast-openbare-ruimte", "subcategory": "Overig Overlast Openbare Ruimte", "subcategory_slug": "overig-overlast-openbare-ruimte", "created_at": "2026-04-24T17:54:24.755113+00:00", "wijk": "Assen-Oost", "address": "Pijlkruidstraat 48", "resolved_date": "2026-05-22", "days_open": 27}, {"id": "f7bfaeca3c189c8b", "lng": 6.577155747, "lat": 52.988879399, "category": "Wegen, verkeer en straatmeubilair", "category_slug": "wegen-verkeer-en-straatmeubilair", "subcategory": "Straatverlichting", "subcategory_slug": "straatverlichting", "created_at": "2026-05-11T20:15:43.696806+00:00", "wijk": "Assen-Oost", "address": "Violenstraat 71", "resolved_date": "2026-05-22", "days_open": 10}, {"id": "30c910a2b2ac8fed", "lng": 6.57599161, "lat": 52.98655522, "category": "Riolering", "category_slug": "riolering", "subcategory": "Riool", "subcategory_slug": "riool", "created_at": "2026-05-19T16:55:29.325258+00:00", "wijk": "Assen-Oost", "address": "Brunelstraat 24", "resolved_date": "2026-05-22", "days_open": 2}, {"id": "dc9573ecc63da769", "lng": 6.56501047, "lat": 52.98915425, "category": "Afval", "category_slug": "afval", "subcategory": "Veeg en zwerfvuil", "subcategory_slug": "veeg-en-zwerfvuil", "created_at": "2026-05-21T08:10:18.447486+00:00", "wijk": "Centrum", "address": "Parkstraat 21", "resolved_date": "2026-05-22", "days_open": 0}, {"id": "e9c7d3e9c11e1885", "lng": 6.569676027, "lat": 52.995491828, "category": "Wegen, verkeer en straatmeubilair", "category_slug": "wegen-verkeer-en-straatmeubilair", "subcategory": "Overig Wegen, verkeer en straatmeubilair", "subcategory_slug": "overig-wegen-verkeer-en-straatmeubilair", "created_at": "2026-05-21T08:26:12.430591+00:00", "wijk": "Centrum", "address": "Julianastraat 24", "resolved_date": "2026-05-22", "days_open": 0}, {"id": "41e12cf13252471f", "lng": 6.56146603, "lat": 52.99462535, "category": "Openbaar groen en water", "category_slug": "openbaar-groen-en-water", "subcategory": "Snoeien", "subcategory_slug": "snoeien", "created_at": "2026-05-20T13:48:20.90082+00:00", "wijk": "Centrum", "address": "Kruisstraat 22", "resolved_date": "2026-05-22", "days_open": 1}, {"id": "e33e62c014edc628", "lng": 6.540832222, "lat": 52.997462176, "category": "Afval", "category_slug": "afval", "subcategory": "Dumping", "subcategory_slug": "dumping", "created_at": "2026-05-21T07:36:05.694505+00:00", "wijk": "Lariks", "address": "Slinge 1A-6", "resolved_date": "2026-05-22", "days_open": 0}, {"id": "91d6855eec35a4cf", "lng": 6.546108127, "lat": 52.995818799, "category": "Afval", "category_slug": "afval", "subcategory": "Veeg en zwerfvuil", "subcategory_slug": "veeg-en-zwerfvuil", "created_at": "2026-05-21T08:01:01.334143+00:00", "wijk": "Lariks", "address": "van Heuven Goedhartlaan 178", "resolved_date": "2026-05-22", "days_open": 0}, {"id": "63a92ffca0c9d6ed", "lng": 6.5473013, "lat": 52.99128569, "category": "Overlast Openbare Ruimte", "category_slug": "overlast-openbare-ruimte", "subcategory": "Overig Overlast Openbare Ruimte", "subcategory_slug": "overig-overlast-openbare-ruimte", "created_at": "2026-05-11T12:42:42.789328+00:00", "wijk": "Centrum", "address": "Rode Heklaan 5", "resolved_date": "2026-05-22", "days_open": 10}, {"id": "9def3929e4b71bba", "lng": 6.561090946, "lat": 52.991910281, "category": "Openbaar groen en water", "category_slug": "openbaar-groen-en-water", "subcategory": "Boom", "subcategory_slug": "boom", "created_at": "2026-05-18T06:14:15.705227+00:00", "wijk": "Centrum", "address": "Zuidersingel 95", "resolved_date": "2026-05-22", "days_open": 3}, {"id": "812123a853ee28e0", "lng": 6.5346822, "lat": 52.97983224, "category": "Wegen, verkeer en straatmeubilair", "category_slug": "wegen-verkeer-en-straatmeubilair", "subcategory": "Onderhoud straat, fietspad en stoep", "subcategory_slug": "onderhoud-straat-fietspad-en-stoep", "created_at": "2026-02-25T15:04:39.824942+00:00", "wijk": "Assen-West", "address": "Kennemerland 196", "resolved_date": "2026-05-22", "days_open": 85}, {"id": "0f4ba9e49c22a15a", "lng": 6.5385889, "lat": 52.97779056, "category": "Openbaar groen en water", "category_slug": "openbaar-groen-en-water", "subcategory": "Snoeien", "subcategory_slug": "snoeien", "created_at": "2026-05-21T07:44:33.186283+00:00", "wijk": "Assen-West", "address": "Schieland 17", "resolved_date": "2026-05-22", "days_open": 0}, {"id": "4a7138e5cc3f9d50", "lng": 6.536679343, "lat": 52.981035279, "category": "Wegen, verkeer en straatmeubilair", "category_slug": "wegen-verkeer-en-straatmeubilair", "subcategory": "Straatverlichting", "subcategory_slug": "straatverlichting", "created_at": "2026-05-18T12:40:49.938763+00:00", "wijk": "Assen-West", "address": "De Vallei 74", "resolved_date": "2026-05-22", "days_open": 3}, {"id": "7e710ee0c1880111", "lng": 6.53027301, "lat": 52.990804751, "category": "Wegen, verkeer en straatmeubilair", "category_slug": "wegen-verkeer-en-straatmeubilair", "subcategory": "Straatverlichting", "subcategory_slug": "straatverlichting", "created_at": "2026-04-28T07:24:37.076579+00:00", "wijk": "Kloosterveen", "address": "Oldambtstraat 78", "resolved_date": "2026-05-22", "days_open": 23}, {"id": "51a5b92dfdcff254", "lng": 6.513975263, "lat": 52.999221715, "category": "Riolering", "category_slug": "riolering", "subcategory": "Mankement put", "subcategory_slug": "mankement-put", "created_at": "2026-05-21T07:14:57.459774+00:00", "wijk": "Kloosterveen", "address": "Zuidergracht 11", "resolved_date": "2026-05-22", "days_open": 0}, {"id": "642057ac1b58bed7", "lng": 6.55480962, "lat": 53.00800926, "category": "Afval", "category_slug": "afval", "subcategory": "Minicontainer", "subcategory_slug": "minicontainer", "created_at": "2026-05-22T06:40:58.985962+00:00", "wijk": "Noorderpark", "address": "Lisztlaan 2", "resolved_date": "2026-05-23", "days_open": 0}, {"id": "cc0ad917438ddd7a", "lng": 6.54262692, "lat": 53.00932287, "category": "Overlast Openbare Ruimte", "category_slug": "overlast-openbare-ruimte", "subcategory": "Overig Overlast Openbare Ruimte", "subcategory_slug": "overig-overlast-openbare-ruimte", "created_at": "2026-04-30T14:04:21.71744+00:00", "wijk": "Lariks", "address": "Rhônepad 73", "resolved_date": "2026-05-23", "days_open": 22}, {"id": "46dd513eb3a816c0", "lng": 6.562241614, "lat": 53.017870031, "category": "Wegen, verkeer en straatmeubilair", "category_slug": "wegen-verkeer-en-straatmeubilair", "subcategory": "Speelvoorziening", "subcategory_slug": "speelvoorziening", "created_at": "2026-03-20T13:29:31.306625+00:00", "wijk": "Peelo", "address": "Scharmbarg 3", "resolved_date": "2026-05-23", "days_open": 63}, {"id": "dbbd945d0a4e407f", "lng": 6.55719079, "lat": 53.01898601, "category": "Openbaar groen en water", "category_slug": "openbaar-groen-en-water", "subcategory": "Overig Openbaar groen en water", "subcategory_slug": "overig-openbaar-groen-en-water", "created_at": "2026-05-21T12:57:30.179747+00:00", "wijk": "Peelo", "address": "Hofstukken 79", "resolved_date": "2026-05-23", "days_open": 1}, {"id": "9ab832b5706bedd8", "lng": 6.570721938, "lat": 53.01894408, "category": "Wegen, verkeer en straatmeubilair", "category_slug": "wegen-verkeer-en-straatmeubilair", "subcategory": "Overig Wegen, verkeer en straatmeubilair", "subcategory_slug": "overig-wegen-verkeer-en-straatmeubilair", "created_at": "2026-05-22T07:25:57.687429+00:00", "wijk": "Peelo", "address": "Groenkampen 70", "resolved_date": "2026-05-23", "days_open": 0}, {"id": "c70b5afe23088cf7", "lng": 6.56577505, "lat": 53.00963616, "category": "Afval", "category_slug": "afval", "subcategory": "Minicontainer", "subcategory_slug": "minicontainer", "created_at": "2026-05-22T06:55:05.756439+00:00", "wijk": "Noorderpark", "address": "Brahmsstraat 2", "resolved_date": "2026-05-23", "days_open": 0}, {"id": "304fd805a104d2f8", "lng": 6.611475291, "lat": 53.012261146, "category": "Wegen, verkeer en straatmeubilair", "category_slug": "wegen-verkeer-en-straatmeubilair", "subcategory": "Onveilige verkeerssituatie", "subcategory_slug": "onveilige-verkeerssituatie", "created_at": "2026-04-15T09:06:28.935961+00:00", "wijk": "Wijk 19 Rolde", "address": "Asserweg 5", "resolved_date": "2026-05-23", "days_open": 37}, {"id": "1ef5b5e24d9d2cad", "lng": 6.582224071, "lat": 52.985088496, "category": "Overlast Openbare Ruimte", "category_slug": "overlast-openbare-ruimte", "subcategory": "Overig Overlast Openbare Ruimte", "subcategory_slug": "overig-overlast-openbare-ruimte", "created_at": "2026-05-01T08:33:08.500337+00:00", "wijk": "Assen-Oost", "address": "Speenkruidstraat 191", "resolved_date": "2026-05-23", "days_open": 21}, {"id": "ced466d923405ad1", "lng": 6.574140465, "lat": 52.988068984, "category": "Wegen, verkeer en straatmeubilair", "category_slug": "wegen-verkeer-en-straatmeubilair", "subcategory": "Onderhoud straat, fietspad en stoep", "subcategory_slug": "onderhoud-straat-fietspad-en-stoep", "created_at": "2026-05-20T18:18:34.279227+00:00", "wijk": "Assen-Oost", "address": "Pelikaanstraat 81", "resolved_date": "2026-05-23", "days_open": 2}, {"id": "a618ada8046912e1", "lng": 6.57224528, "lat": 52.99281145, "category": "Afval", "category_slug": "afval", "subcategory": "Gevaarlijk afval", "subcategory_slug": "gevaarlijk-afval", "created_at": "2026-05-22T06:28:13.792708+00:00", "wijk": "Assen-Oost", "address": "Oosterparallelweg 42", "resolved_date": "2026-05-23", "days_open": 0}, {"id": "654dcada91f39b69", "lng": 6.56484447, "lat": 52.99782744, "category": "Afval", "category_slug": "afval", "subcategory": "Dumping", "subcategory_slug": "dumping", "created_at": "2026-05-21T12:41:27.23538+00:00", "wijk": "Noorderpark", "address": "Groningerstraat 57", "resolved_date": "2026-05-23", "days_open": 1}, {"id": "8038ac340dbfaf65", "lng": 6.55324309, "lat": 52.99514621, "category": "Afval", "category_slug": "afval", "subcategory": "Minicontainer", "subcategory_slug": "minicontainer", "created_at": "2026-05-22T06:56:37.153384+00:00", "wijk": "Lariks", "address": "het Kanaal 29", "resolved_date": "2026-05-23", "days_open": 0}, {"id": "5f53f9fe4ee0571f", "lng": 6.54970572, "lat": 52.99431791, "category": "Overlast Openbare Ruimte", "category_slug": "overlast-openbare-ruimte", "subcategory": "Overig Overlast Openbare Ruimte", "subcategory_slug": "overig-overlast-openbare-ruimte", "created_at": "2026-05-11T13:38:41.850583+00:00", "wijk": "Lariks", "address": "Vaart N.Z. 92D", "resolved_date": "2026-05-23", "days_open": 11}, {"id": "6da4a40fc2793645", "lng": 6.554527581, "lat": 52.998011031, "category": "Openbaar groen en water", "category_slug": "openbaar-groen-en-water", "subcategory": "Overig Openbaar groen en water", "subcategory_slug": "overig-openbaar-groen-en-water", "created_at": "2026-05-22T06:48:34.255212+00:00", "wijk": "Noorderpark", "address": "Nansenstraat 35N", "resolved_date": "2026-05-23", "days_open": 0}, {"id": "145d339c3ca031ad", "lng": 6.551400125, "lat": 52.999007023, "category": "Afval", "category_slug": "afval", "subcategory": "Gevaarlijk afval", "subcategory_slug": "gevaarlijk-afval", "created_at": "2026-05-20T06:53:30.289433+00:00", "wijk": "Noorderpark", "address": "Thorbeckelaan 349", "resolved_date": "2026-05-23", "days_open": 2}, {"id": "bf7fa50970dedb21", "lng": 6.5382269, "lat": 52.99619942, "category": "Wegen, verkeer en straatmeubilair", "category_slug": "wegen-verkeer-en-straatmeubilair", "subcategory": "Wegmarkering", "subcategory_slug": "wegmarkering", "created_at": "2026-05-22T06:47:42.451316+00:00", "wijk": "Lariks", "address": "Zwin 13", "resolved_date": "2026-05-23", "days_open": 0}, {"id": "a435a95805a2e857", "lng": 6.551873535, "lat": 53.005955727, "category": "Afval", "category_slug": "afval", "subcategory": "Container", "subcategory_slug": "container", "created_at": "2026-05-22T13:33:31.937162+00:00", "wijk": "Noorderpark", "address": "Mr. Groen van Prinstererlaan 131Z-1", "resolved_date": "2026-05-25", "days_open": 2}, {"id": "1b49b87e14eca477", "lng": 6.511998011, "lat": 53.000294703, "category": "Afval", "category_slug": "afval", "subcategory": "Dumping", "subcategory_slug": "dumping", "created_at": "2026-05-23T10:45:48.103138+00:00", "wijk": "Kloosterveen", "address": "Westerwal 44", "resolved_date": "2026-05-26", "days_open": 2}, {"id": "01ae93819b488be8", "lng": 6.54519865, "lat": 53.00741972, "category": "Wegen, verkeer en straatmeubilair", "category_slug": "wegen-verkeer-en-straatmeubilair", "subcategory": "Onveilige verkeerssituatie", "subcategory_slug": "onveilige-verkeerssituatie", "created_at": "2026-05-25T06:48:11.047157+00:00", "wijk": "Lariks", "address": "Maasstraat 36", "resolved_date": "2026-05-26", "days_open": 0}, {"id": "40f1d0ab4d241c03", "lng": 6.539126337, "lat": 53.001602628, "category": "Openbaar groen en water", "category_slug": "openbaar-groen-en-water", "subcategory": "Snoeien", "subcategory_slug": "snoeien", "created_at": "2026-05-20T14:05:38.21304+00:00", "wijk": "Lariks", "address": "Gouwe 118", "resolved_date": "2026-05-26", "days_open": 5}, {"id": "18eeb6d4c81f5d38", "lng": 6.547490266, "lat": 53.012604297, "category": "overig", "category_slug": "overig", "subcategory": "overig", "subcategory_slug": "overig", "created_at": "2026-05-23T07:08:04.773132+00:00", "wijk": "Wijk 04 Pittelo", "address": "Mainstraat 64", "resolved_date": "2026-05-26", "days_open": 2}, {"id": "88bd5da1ba5dd628", "lng": 6.5428146, "lat": 53.0093369, "category": "Wegen, verkeer en straatmeubilair", "category_slug": "wegen-verkeer-en-straatmeubilair", "subcategory": "Overig Wegen, verkeer en straatmeubilair", "subcategory_slug": "overig-wegen-verkeer-en-straatmeubilair", "created_at": "2026-05-23T13:43:05.73762+00:00", "wijk": "Lariks", "address": "Rhônepad 71", "resolved_date": "2026-05-26", "days_open": 2}, {"id": "04f7b36585caa758", "lng": 6.557587758, "lat": 53.017237741, "category": "Wegen, verkeer en straatmeubilair", "category_slug": "wegen-verkeer-en-straatmeubilair", "subcategory": "Overig Wegen, verkeer en straatmeubilair", "subcategory_slug": "overig-wegen-verkeer-en-straatmeubilair", "created_at": "2026-05-24T10:30:24.038441+00:00", "wijk": "Peelo", "address": "Veenwalweg 5", "resolved_date": "2026-05-26", "days_open": 1}, {"id": "e417acfdd5cfd277", "lng": 6.601409912, "lat": 53.019740066, "category": "Overlast Openbare Ruimte", "category_slug": "overlast-openbare-ruimte", "subcategory": "Overig Overlast Openbare Ruimte", "subcategory_slug": "overig-overlast-openbare-ruimte", "created_at": "2026-05-18T11:33:10.394265+00:00", "wijk": "Marsdijk", "address": "Podzolhamel 10", "resolved_date": "2026-05-26", "days_open": 7}, {"id": "4b04e921e8e69f66", "lng": 6.59143866, "lat": 53.01414357, "category": "Afval", "category_slug": "afval", "subcategory": "Minicontainer", "subcategory_slug": "minicontainer", "created_at": "2026-05-22T14:32:55.426041+00:00", "wijk": "Marsdijk", "address": "Saffierstoep 66", "resolved_date": "2026-05-26", "days_open": 3}, {"id": "90f80468733c04fa", "lng": 6.58804231, "lat": 53.01256905, "category": "Wegen, verkeer en straatmeubilair", "category_slug": "wegen-verkeer-en-straatmeubilair", "subcategory": "Overig Wegen, verkeer en straatmeubilair", "subcategory_slug": "overig-wegen-verkeer-en-straatmeubilair", "created_at": "2026-05-24T12:19:56.170323+00:00", "wijk": "Marsdijk", "address": "Binnenstoep 18", "resolved_date": "2026-05-26", "days_open": 1}, {"id": "a4a872264012b50b", "lng": 6.56323874, "lat": 53.00841195, "category": "Afval", "category_slug": "afval", "subcategory": "Minicontainer", "subcategory_slug": "minicontainer", "created_at": "2026-05-22T13:49:33.333244+00:00", "wijk": "Noorderpark", "address": "Paganinilaan 15", "resolved_date": "2026-05-26", "days_open": 3}, {"id": "0e4803ccc2addb79", "lng": 6.580292252, "lat": 52.999325025, "category": "Openbaar groen en water", "category_slug": "openbaar-groen-en-water", "subcategory": "Exoten", "subcategory_slug": "exoten", "created_at": "2026-05-23T14:36:45.569514+00:00", "wijk": "Assen-Oost", "address": "Amelterhout 69", "resolved_date": "2026-05-26", "days_open": 2}, {"id": "f4cb61dc601676d8", "lng": 6.576804221, "lat": 52.987939715, "category": "overig", "category_slug": "overig", "subcategory": "overig", "subcategory_slug": "overig", "created_at": "2026-05-23T10:13:01.542724+00:00", "wijk": "Assen-Oost", "address": "Lisdoddestraat 4", "resolved_date": "2026-05-26", "days_open": 2}, {"id": "58e9c95e6ec2a89f", "lng": 6.573038399, "lat": 52.994055086, "category": "Afval", "category_slug": "afval", "subcategory": "Dumping", "subcategory_slug": "dumping", "created_at": "2026-05-23T16:41:12.035376+00:00", "wijk": "Assen-Oost", "address": "Koekoekstraat 15", "resolved_date": "2026-05-26", "days_open": 2}, {"id": "530e47ba36ac3b30", "lng": 6.561337709, "lat": 52.993040461, "category": "Overlast Openbare Ruimte", "category_slug": "overlast-openbare-ruimte", "subcategory": "Overig Overlast Openbare Ruimte", "subcategory_slug": "overig-overlast-openbare-ruimte", "created_at": "2026-05-24T20:28:28.224159+00:00", "wijk": "Centrum", "address": "Torenlaan 20A", "resolved_date": "2026-05-26", "days_open": 1}, {"id": "b5034ad8b8efaca5", "lng": 6.56079275, "lat": 52.9851237, "category": "overig", "category_slug": "overig", "subcategory": "overig", "subcategory_slug": "overig", "created_at": "2026-05-23T12:44:55.352125+00:00", "wijk": "Centrum", "address": "Beilerstraat 38", "resolved_date": "2026-05-26", "days_open": 2}, {"id": "ed1726c47ed1928e", "lng": 6.513369083, "lat": 52.985919547, "category": "Afval", "category_slug": "afval", "subcategory": "Gevaarlijk afval", "subcategory_slug": "gevaarlijk-afval", "created_at": "2026-05-24T10:42:34.999731+00:00", "wijk": "Buitengebied", "address": "Baggelhuizen 7", "resolved_date": "2026-05-26", "days_open": 1}, {"id": "30f8688df95d6cf1", "lng": 6.514281034, "lat": 52.984849512, "category": "Afval", "category_slug": "afval", "subcategory": "Veeg en zwerfvuil", "subcategory_slug": "veeg-en-zwerfvuil", "created_at": "2026-05-22T14:56:53.227896+00:00", "wijk": "Buitengebied", "address": "Baggelhuizen 7", "resolved_date": "2026-05-26", "days_open": 3}, {"id": "4b2dbdafa095c28e", "lng": 6.513467668, "lat": 52.999188407, "category": "Afval", "category_slug": "afval", "subcategory": "Dumping", "subcategory_slug": "dumping", "created_at": "2026-05-24T06:10:53.66209+00:00", "wijk": "Kloosterveen", "address": "Zuiderpoort 2", "resolved_date": "2026-05-26", "days_open": 1}, {"id": "fc080b8136d1b270", "lng": 6.504795774, "lat": 53.0021945, "category": "Wegen, verkeer en straatmeubilair", "category_slug": "wegen-verkeer-en-straatmeubilair", "subcategory": "Onveilige verkeerssituatie", "subcategory_slug": "onveilige-verkeerssituatie", "created_at": "2026-05-20T08:25:03.17381+00:00", "wijk": "Kloosterveen", "address": "Aletta Jacobsweg 17", "resolved_date": "2026-05-27", "days_open": 6}, {"id": "e6186142e160bdfc", "lng": 6.506234407, "lat": 53.002369335, "category": "Wegen, verkeer en straatmeubilair", "category_slug": "wegen-verkeer-en-straatmeubilair", "subcategory": "Onveilige verkeerssituatie", "subcategory_slug": "onveilige-verkeerssituatie", "created_at": "2026-03-25T12:54:37.022215+00:00", "wijk": "Kloosterveen", "address": "Aletta Jacobsweg 1", "resolved_date": "2026-05-27", "days_open": 62}, {"id": "b99738ffaf341255", "lng": 6.506607234, "lat": 53.002070724, "category": "Wegen, verkeer en straatmeubilair", "category_slug": "wegen-verkeer-en-straatmeubilair", "subcategory": "Onveilige verkeerssituatie", "subcategory_slug": "onveilige-verkeerssituatie", "created_at": "2026-05-21T05:21:53.218896+00:00", "wijk": "Kloosterveen", "address": "Aletta Jacobsweg 76", "resolved_date": "2026-05-27", "days_open": 5}, {"id": "1afb2708f2d0f26a", "lng": 6.51228615, "lat": 53.00012025, "category": "Afval", "category_slug": "afval", "subcategory": "Minicontainer", "subcategory_slug": "minicontainer", "created_at": "2026-05-26T08:19:47.626525+00:00", "wijk": "Kloosterveen", "address": "Gildestraat 20", "resolved_date": "2026-05-27", "days_open": 0}, {"id": "7178085f2b3dab1d", "lng": 6.511988997, "lat": 53.000284452, "category": "Afval", "category_slug": "afval", "subcategory": "Dumping", "subcategory_slug": "dumping", "created_at": "2026-05-24T11:29:45.316542+00:00", "wijk": "Kloosterveen", "address": "Westerwal 44", "resolved_date": "2026-05-27", "days_open": 2}, {"id": "ea5716c27162c361", "lng": 6.51524663, "lat": 53.001030414, "category": "Wegen, verkeer en straatmeubilair", "category_slug": "wegen-verkeer-en-straatmeubilair", "subcategory": "Onveilige verkeerssituatie", "subcategory_slug": "onveilige-verkeerssituatie", "created_at": "2026-03-25T08:57:39.771199+00:00", "wijk": "Kloosterveen", "address": "Noorderpoort 1", "resolved_date": "2026-05-27", "days_open": 62}, {"id": "b07673f45c579bdd", "lng": 6.515327746, "lat": 53.001028414, "category": "Wegen, verkeer en straatmeubilair", "category_slug": "wegen-verkeer-en-straatmeubilair", "subcategory": "Onveilige verkeerssituatie", "subcategory_slug": "onveilige-verkeerssituatie", "created_at": "2026-03-24T15:48:29.926435+00:00", "wijk": "Kloosterveen", "address": "Noorderpoort 3", "resolved_date": "2026-05-27", "days_open": 63}, {"id": "b8a35f49d82d05d7", "lng": 6.515327746, "lat": 53.001028414, "category": "Wegen, verkeer en straatmeubilair", "category_slug": "wegen-verkeer-en-straatmeubilair", "subcategory": "Onveilige verkeerssituatie", "subcategory_slug": "onveilige-verkeerssituatie", "created_at": "2026-04-12T09:43:04.925346+00:00", "wijk": "Kloosterveen", "address": "Noorderpoort 3", "resolved_date": "2026-05-27", "days_open": 44}, {"id": "b16380814de79b53", "lng": 6.515139788, "lat": 53.00561464, "category": "Openbaar groen en water", "category_slug": "openbaar-groen-en-water", "subcategory": "Maaien", "subcategory_slug": "maaien", "created_at": "2026-05-25T22:23:16.034346+00:00", "wijk": "Kloosterveen", "address": "Carry van Bruggenweg 1", "resolved_date": "2026-05-27", "days_open": 1}, {"id": "e478c2ad20f5ed90", "lng": 6.506998837, "lat": 53.005190698, "category": "Wegen, verkeer en straatmeubilair", "category_slug": "wegen-verkeer-en-straatmeubilair", "subcategory": "Onveilige verkeerssituatie", "subcategory_slug": "onveilige-verkeerssituatie", "created_at": "2026-05-12T07:41:55.711377+00:00", "wijk": "Kloosterveen", "address": "De Boomgaard 2", "resolved_date": "2026-05-27", "days_open": 14}, {"id": "c702bbb7d7f53350", "lng": 6.51540684, "lat": 53.00825273, "category": "Overlast Openbare Ruimte", "category_slug": "overlast-openbare-ruimte", "subcategory": "Luchtkwaliteit", "subcategory_slug": "luchtkwaliteit", "created_at": "2026-05-21T07:06:09.451837+00:00", "wijk": "Kloosterveen", "address": "Ebbenhout 28", "resolved_date": "2026-05-27", "days_open": 5}, {"id": "0213dfeafc0ecb9a", "lng": 6.519956589, "lat": 53.007682642, "category": "Wegen, verkeer en straatmeubilair", "category_slug": "wegen-verkeer-en-straatmeubilair", "subcategory": "Onveilige verkeerssituatie", "subcategory_slug": "onveilige-verkeerssituatie", "created_at": "2026-02-02T19:39:55.27617+00:00", "wijk": "Kloosterveen", "address": "Asserwijk 29", "resolved_date": "2026-05-27", "days_open": 113}, {"id": "088d0d426f8aed99", "lng": 6.52087902, "lat": 53.00554983, "category": "Overlast Openbare Ruimte", "category_slug": "overlast-openbare-ruimte", "subcategory": "Luchtkwaliteit", "subcategory_slug": "luchtkwaliteit", "created_at": "2026-05-21T07:04:26.065432+00:00", "wijk": "Kloosterveen", "address": "Asserwijk 13", "resolved_date": "2026-05-27", "days_open": 5}, {"id": "db91c8417dded4a4", "lng": 6.53087511, "lat": 53.000838355, "category": "Wegen, verkeer en straatmeubilair", "category_slug": "wegen-verkeer-en-straatmeubilair", "subcategory": "Straatverlichting", "subcategory_slug": "straatverlichting", "created_at": "2026-05-20T18:00:04.90739+00:00", "wijk": "Kloosterveen", "address": "Mien Ruysweg 1", "resolved_date": "2026-05-27", "days_open": 6}, {"id": "409e8fb7d9604493", "lng": 6.536186876, "lat": 53.005817106, "category": "Wegen, verkeer en straatmeubilair", "category_slug": "wegen-verkeer-en-straatmeubilair", "subcategory": "Straatverlichting", "subcategory_slug": "straatverlichting", "created_at": "2026-05-21T13:38:06.510756+00:00", "wijk": "Lariks", "address": "Donaustraat 65", "resolved_date": "2026-05-27", "days_open": 5}, {"id": "21ed30eaf4b05de7", "lng": 6.54794703, "lat": 53.00432851, "category": "Openbaar groen en water", "category_slug": "openbaar-groen-en-water", "subcategory": "Snoeien", "subcategory_slug": "snoeien", "created_at": "2026-05-26T07:25:59.406681+00:00", "wijk": "Lariks", "address": "Dingspelstraat 6", "resolved_date": "2026-05-27", "days_open": 0}, {"id": "3174c2efd7acd6ff", "lng": 6.55236893, "lat": 53.01923979, "category": "Wegen, verkeer en straatmeubilair", "category_slug": "wegen-verkeer-en-straatmeubilair", "subcategory": "Onveilige verkeerssituatie", "subcategory_slug": "onveilige-verkeerssituatie", "created_at": "2026-05-19T07:47:19.226689+00:00", "wijk": "Peelo", "address": "Leemveld 102", "resolved_date": "2026-05-27", "days_open": 7}, {"id": "bf264d1e7ad5974b", "lng": 6.55307326, "lat": 53.01882851, "category": "Overlast Openbare Ruimte", "category_slug": "overlast-openbare-ruimte", "subcategory": "Overig Overlast Openbare Ruimte", "subcategory_slug": "overig-overlast-openbare-ruimte", "created_at": "2026-05-25T07:26:27.682956+00:00", "wijk": "Peelo", "address": "Leemveld 118", "resolved_date": "2026-05-27", "days_open": 1}, {"id": "f15655a1145bfae2", "lng": 6.557700634, "lat": 53.021576946, "category": "Openbaar groen en water", "category_slug": "openbaar-groen-en-water", "subcategory": "Exoten", "subcategory_slug": "exoten", "created_at": "2026-05-23T10:35:27.068686+00:00", "wijk": "Peelo", "address": "Iemstukken 120", "resolved_date": "2026-05-27", "days_open": 3}, {"id": "9e6a95b1b48bfe07", "lng": 6.57778703, "lat": 53.019609856, "category": "Openbaar groen en water", "category_slug": "openbaar-groen-en-water", "subcategory": "Maaien", "subcategory_slug": "maaien", "created_at": "2026-05-26T08:03:38.948688+00:00", "wijk": "Marsdijk", "address": "Welheugte 38", "resolved_date": "2026-05-27", "days_open": 0}, {"id": "2030ad44dbd14231", "lng": 6.564477682, "lat": 53.021306703, "category": "Wegen, verkeer en straatmeubilair", "category_slug": "wegen-verkeer-en-straatmeubilair", "subcategory": "Onveilige verkeerssituatie", "subcategory_slug": "onveilige-verkeerssituatie", "created_at": "2026-05-22T08:39:54.038711+00:00", "wijk": "Peelo", "address": "Spiekerlanden 64", "resolved_date": "2026-05-27", "days_open": 4}, {"id": "6303374ca1332d97", "lng": 6.5810704, "lat": 53.0160297, "category": "Wegen, verkeer en straatmeubilair", "category_slug": "wegen-verkeer-en-straatmeubilair", "subcategory": "Verkeersbord", "subcategory_slug": "verkeersbord", "created_at": "2026-05-15T10:38:57.075929+00:00", "wijk": "Marsdijk", "address": "Beunheugte 1", "resolved_date": "2026-05-27", "days_open": 11}, {"id": "9398188c9bc80e02", "lng": 6.5793266, "lat": 53.0199236, "category": "Wegen, verkeer en straatmeubilair", "category_slug": "wegen-verkeer-en-straatmeubilair", "subcategory": "Paal", "subcategory_slug": "paal", "created_at": "2026-03-12T18:29:10.998414+00:00", "wijk": "Marsdijk", "address": "Kiepheugte 2", "resolved_date": "2026-05-27", "days_open": 75}, {"id": "224596166c5145b9", "lng": 6.57886762, "lat": 53.02143212, "category": "Wegen, verkeer en straatmeubilair", "category_slug": "wegen-verkeer-en-straatmeubilair", "subcategory": "Onderhoud straat, fietspad en stoep", "subcategory_slug": "onderhoud-straat-fietspad-en-stoep", "created_at": "2026-05-21T07:54:22.837133+00:00", "wijk": "Marsdijk", "address": "Tussenbree 6", "resolved_date": "2026-05-27", "days_open": 5}, {"id": "d6e51448a508b0f1", "lng": 6.58458653, "lat": 53.02127614, "category": "Wegen, verkeer en straatmeubilair", "category_slug": "wegen-verkeer-en-straatmeubilair", "subcategory": "Verkeersbord", "subcategory_slug": "verkeersbord", "created_at": "2026-05-26T04:43:44.905926+00:00", "wijk": "Marsdijk", "address": "Boerhoorndreef 77", "resolved_date": "2026-05-27", "days_open": 0}, {"id": "a769e880ad534605", "lng": 6.58458653, "lat": 53.02127614, "category": "Wegen, verkeer en straatmeubilair", "category_slug": "wegen-verkeer-en-straatmeubilair", "subcategory": "Verkeersbord", "subcategory_slug": "verkeersbord", "created_at": "2026-05-26T04:43:45.14886+00:00", "wijk": "Marsdijk", "address": "Boerhoorndreef 77", "resolved_date": "2026-05-27", "days_open": 0}, {"id": "99fed4bf84189b85", "lng": 6.58772556, "lat": 53.0086044, "category": "Overlast Openbare Ruimte", "category_slug": "overlast-openbare-ruimte", "subcategory": "Luchtkwaliteit", "subcategory_slug": "luchtkwaliteit", "created_at": "2026-05-19T22:17:14.262855+00:00", "wijk": "Marsdijk", "address": "Pottenbakkerstraat 1A", "resolved_date": "2026-05-27", "days_open": 7}, {"id": "543cdc0d0495aea7", "lng": 6.57919579, "lat": 53.01437408, "category": "Wegen, verkeer en straatmeubilair", "category_slug": "wegen-verkeer-en-straatmeubilair", "subcategory": "Onderhoud straat, fietspad en stoep", "subcategory_slug": "onderhoud-straat-fietspad-en-stoep", "created_at": "2026-05-22T09:17:01.026+00:00", "wijk": "Marsdijk", "address": "Huisingehof 28", "resolved_date": "2026-05-27", "days_open": 4}, {"id": "dc55929608230991", "lng": 6.56615432, "lat": 53.00933585, "category": "Afval", "category_slug": "afval", "subcategory": "Dumping", "subcategory_slug": "dumping", "created_at": "2026-05-26T08:14:37.733072+00:00", "wijk": "Noorderpark", "address": "Brahmsstraat 11", "resolved_date": "2026-05-27", "days_open": 0}, {"id": "3bfe5424457385b2", "lng": 6.562563479, "lat": 53.00591215, "category": "Wegen, verkeer en straatmeubilair", "category_slug": "wegen-verkeer-en-straatmeubilair", "subcategory": "Onveilige verkeerssituatie", "subcategory_slug": "onveilige-verkeerssituatie", "created_at": "2026-05-21T17:47:10.09556+00:00", "wijk": "Noorderpark", "address": "Zwartwatersweg 58", "resolved_date": "2026-05-27", "days_open": 5}, {"id": "8fd9a4034d69112c", "lng": 6.594685614, "lat": 53.015183681, "category": "Openbaar groen en water", "category_slug": "openbaar-groen-en-water", "subcategory": "Snoeien", "subcategory_slug": "snoeien", "created_at": "2026-05-23T08:27:50.585422+00:00", "wijk": "Marsdijk", "address": "Opaalstoep 11", "resolved_date": "2026-05-27", "days_open": 3}, {"id": "57e56614a5947fba", "lng": 6.57910198, "lat": 52.999205573, "category": "Openbaar groen en water", "category_slug": "openbaar-groen-en-water", "subcategory": "Overig Openbaar groen en water", "subcategory_slug": "overig-openbaar-groen-en-water", "created_at": "2026-05-21T20:24:55.302791+00:00", "wijk": "Assen-Oost", "address": "Amelterhout 61", "resolved_date": "2026-05-27", "days_open": 5}, {"id": "b0d21df51b530247", "lng": 6.58076648, "lat": 52.98906894, "category": "Wegen, verkeer en straatmeubilair", "category_slug": "wegen-verkeer-en-straatmeubilair", "subcategory": "Onderhoud straat, fietspad en stoep", "subcategory_slug": "onderhoud-straat-fietspad-en-stoep", "created_at": "2026-05-26T08:14:47.23877+00:00", "wijk": "Assen-Oost", "address": "Vredeveldseweg 80C-1", "resolved_date": "2026-05-27", "days_open": 0}, {"id": "244f40d69976850b", "lng": 6.580217538, "lat": 52.991803101, "category": "Wegen, verkeer en straatmeubilair", "category_slug": "wegen-verkeer-en-straatmeubilair", "subcategory": "Onveilige verkeerssituatie", "subcategory_slug": "onveilige-verkeerssituatie", "created_at": "2026-05-03T12:27:45.897693+00:00", "wijk": "Assen-Oost", "address": "Roerdompstraat 20", "resolved_date": "2026-05-27", "days_open": 23}, {"id": "ee9f12efdf21429b", "lng": 6.576804221, "lat": 52.987939715, "category": "Riolering", "category_slug": "riolering", "subcategory": "Riool", "subcategory_slug": "riool", "created_at": "2026-05-23T10:13:01.542724+00:00", "wijk": "Assen-Oost", "address": "Lisdoddestraat 4", "resolved_date": "2026-05-27", "days_open": 3}, {"id": "5b8de83c19eae675", "lng": 6.5628347, "lat": 52.99511517, "category": "Openbaar groen en water", "category_slug": "openbaar-groen-en-water", "subcategory": "Onkruid", "subcategory_slug": "onkruid", "created_at": "2026-05-20T10:22:32.221089+00:00", "wijk": "Centrum", "address": "Gedempte Singel 9", "resolved_date": "2026-05-27", "days_open": 6}, {"id": "3a59711323398f68", "lng": 6.56947274, "lat": 52.99492389, "category": "Wegen, verkeer en straatmeubilair", "category_slug": "wegen-verkeer-en-straatmeubilair", "subcategory": "Onveilige verkeerssituatie", "subcategory_slug": "onveilige-verkeerssituatie", "created_at": "2026-05-22T17:19:55.257392+00:00", "wijk": "Centrum", "address": "Julianastraat 12", "resolved_date": "2026-05-27", "days_open": 4}, {"id": "b88d96a9052d9729", "lng": 6.56899188, "lat": 52.99488667, "category": "Wegen, verkeer en straatmeubilair", "category_slug": "wegen-verkeer-en-straatmeubilair", "subcategory": "Onveilige verkeerssituatie", "subcategory_slug": "onveilige-verkeerssituatie", "created_at": "2026-05-22T14:23:23.660755+00:00", "wijk": "Centrum", "address": "Julianastraat 9A", "resolved_date": "2026-05-27", "days_open": 4}, {"id": "4c36c11b769ccdeb", "lng": 6.569153208, "lat": 52.99465795, "category": "Wegen, verkeer en straatmeubilair", "category_slug": "wegen-verkeer-en-straatmeubilair", "subcategory": "Onveilige verkeerssituatie", "subcategory_slug": "onveilige-verkeerssituatie", "created_at": "2026-05-22T17:18:52.927826+00:00", "wijk": "Centrum", "address": "Julianastraat 2", "resolved_date": "2026-05-27", "days_open": 4}, {"id": "aa78b51febf2a695", "lng": 6.57506262, "lat": 52.99780723, "category": "Wegen, verkeer en straatmeubilair", "category_slug": "wegen-verkeer-en-straatmeubilair", "subcategory": "Onderhoud straat, fietspad en stoep", "subcategory_slug": "onderhoud-straat-fietspad-en-stoep", "created_at": "2026-05-22T12:32:09.901672+00:00", "wijk": "Assen-Oost", "address": "Herman Broodstraat 29", "resolved_date": "2026-05-27", "days_open": 4}, {"id": "797c9a00757f7452", "lng": 6.570278019, "lat": 52.997642123, "category": "Openbaar groen en water", "category_slug": "openbaar-groen-en-water", "subcategory": "Overig Openbaar groen en water", "subcategory_slug": "overig-openbaar-groen-en-water", "created_at": "2026-05-25T13:35:23.440534+00:00", "wijk": "Noorderpark", "address": "Veemarktstraat 12", "resolved_date": "2026-05-27", "days_open": 1}, {"id": "c38705e7c7f745c3", "lng": 6.558227799, "lat": 52.998278876, "category": "Wegen, verkeer en straatmeubilair", "category_slug": "wegen-verkeer-en-straatmeubilair", "subcategory": "Straatverlichting", "subcategory_slug": "straatverlichting", "created_at": "2026-02-09T19:23:31.786569+00:00", "wijk": "Noorderpark", "address": "Dr. Schaepmanstraat 117", "resolved_date": "2026-05-27", "days_open": 106}, {"id": "6c90ef94f69c1d69", "lng": 6.553012133, "lat": 52.994102711, "category": "Wegen, verkeer en straatmeubilair", "category_slug": "wegen-verkeer-en-straatmeubilair", "subcategory": "Onveilige verkeerssituatie", "subcategory_slug": "onveilige-verkeerssituatie", "created_at": "2026-05-20T09:45:08.496571+00:00", "wijk": "Lariks", "address": "Vaart N.Z. 74E", "resolved_date": "2026-05-27", "days_open": 6}, {"id": "bf2eda84705d01fc", "lng": 6.541338432, "lat": 52.985537579, "category": "Wegen, verkeer en straatmeubilair", "category_slug": "wegen-verkeer-en-straatmeubilair", "subcategory": "Bushalte", "subcategory_slug": "bushalte", "created_at": "2026-05-25T20:05:25.045742+00:00", "wijk": "Assen-West", "address": "Kortbossen 1", "resolved_date": "2026-05-27", "days_open": 1}, {"id": "3dd6c03ff8e23e10", "lng": 6.550502479, "lat": 52.989265655, "category": "Afval", "category_slug": "afval", "subcategory": "Veeg en zwerfvuil", "subcategory_slug": "veeg-en-zwerfvuil", "created_at": "2026-05-26T06:11:30.944787+00:00", "wijk": "Centrum", "address": "Hertenkamp 10F", "resolved_date": "2026-05-27", "days_open": 0}, {"id": "0d2f0301446bf4cb", "lng": 6.55900939, "lat": 52.98913143, "category": "Wegen, verkeer en straatmeubilair", "category_slug": "wegen-verkeer-en-straatmeubilair", "subcategory": "Onveilige verkeerssituatie", "subcategory_slug": "onveilige-verkeerssituatie", "created_at": "2026-04-20T15:02:21.822779+00:00", "wijk": "Centrum", "address": "Beilerstraat 59", "resolved_date": "2026-05-27", "days_open": 36}, {"id": "d71f3a25a5d80426", "lng": 6.540046492, "lat": 52.982221872, "category": "Wegen, verkeer en straatmeubilair", "category_slug": "wegen-verkeer-en-straatmeubilair", "subcategory": "Onveilige verkeerssituatie", "subcategory_slug": "onveilige-verkeerssituatie", "created_at": "2026-05-19T10:19:57.659355+00:00", "wijk": "Assen-West", "address": "Eemland 7", "resolved_date": "2026-05-27", "days_open": 7}, {"id": "32f03b11fe97cb1e", "lng": 6.510394514, "lat": 52.99191058, "category": "Wegen, verkeer en straatmeubilair", "category_slug": "wegen-verkeer-en-straatmeubilair", "subcategory": "Onveilige verkeerssituatie", "subcategory_slug": "onveilige-verkeerssituatie", "created_at": "2026-04-06T13:04:42.434566+00:00", "wijk": "Kloosterveen", "address": "Virgo 39", "resolved_date": "2026-05-27", "days_open": 50}, {"id": "e147f76e2561bf8a", "lng": 6.5306798, "lat": 52.9870985, "category": "Wegen, verkeer en straatmeubilair", "category_slug": "wegen-verkeer-en-straatmeubilair", "subcategory": "Onveilige verkeerssituatie", "subcategory_slug": "onveilige-verkeerssituatie", "created_at": "2026-02-27T13:47:37.06462+00:00", "wijk": "Assen-West", "address": "De Wouden 312", "resolved_date": "2026-05-27", "days_open": 88}, {"id": "3ef31da056b373a3", "lng": 6.519471109, "lat": 52.999253596, "category": "Openbaar groen en water", "category_slug": "openbaar-groen-en-water", "subcategory": "Boom", "subcategory_slug": "boom", "created_at": "2026-05-25T08:33:13.55831+00:00", "wijk": "Kloosterveen", "address": "Gazellenlaan 29", "resolved_date": "2026-05-27", "days_open": 1}, {"id": "01c9b52cdd74bb77", "lng": 6.512928314, "lat": 52.9994682, "category": "Wegen, verkeer en straatmeubilair", "category_slug": "wegen-verkeer-en-straatmeubilair", "subcategory": "Onveilige verkeerssituatie", "subcategory_slug": "onveilige-verkeerssituatie", "created_at": "2026-05-26T07:40:48.711878+00:00", "wijk": "Kloosterveen", "address": "Zuiderpoort 8", "resolved_date": "2026-05-27", "days_open": 0}, {"id": "2949ff720246c717", "lng": 6.51228919, "lat": 52.99716529, "category": "Wegen, verkeer en straatmeubilair", "category_slug": "wegen-verkeer-en-straatmeubilair", "subcategory": "Onderhoud straat, fietspad en stoep", "subcategory_slug": "onderhoud-straat-fietspad-en-stoep", "created_at": "2026-05-21T08:25:55.140135+00:00", "wijk": "Kloosterveen", "address": "Tjalk 17", "resolved_date": "2026-05-27", "days_open": 5}, {"id": "9f363e810d738556", "lng": 6.505064964, "lat": 52.997662348, "category": "Wegen, verkeer en straatmeubilair", "category_slug": "wegen-verkeer-en-straatmeubilair", "subcategory": "Verkeersbord", "subcategory_slug": "verkeersbord", "created_at": "2026-04-23T06:05:33.020364+00:00", "wijk": "Kloosterveen", "address": "Rosa Spierweg 42", "resolved_date": "2026-05-27", "days_open": 33}, {"id": "011fe43bda5b744b", "lng": 6.50067886, "lat": 52.99983916, "category": "Wegen, verkeer en straatmeubilair", "category_slug": "wegen-verkeer-en-straatmeubilair", "subcategory": "Straatverlichting", "subcategory_slug": "straatverlichting", "created_at": "2026-04-29T08:41:16.700015+00:00", "wijk": "Kloosterveen", "address": "Zaailand 19", "resolved_date": "2026-05-27", "days_open": 27}, {"id": "3a32ab4811dc9148", "lng": 6.504813333, "lat": 53.002538333, "category": "Wegen, verkeer en straatmeubilair", "category_slug": "wegen-verkeer-en-straatmeubilair", "subcategory": "Overig Wegen, verkeer en straatmeubilair", "subcategory_slug": "overig-wegen-verkeer-en-straatmeubilair", "created_at": "2026-05-26T12:22:48.90385+00:00", "wijk": "Kloosterveen", "address": "De Boomgaard 78", "resolved_date": "2026-05-28", "days_open": 1}, {"id": "089e314171c5ed49", "lng": 6.513762027, "lat": 53.006022707, "category": "Overlast Dier", "category_slug": "overlast-dier", "subcategory": "Hond", "subcategory_slug": "hond", "created_at": "2026-05-25T22:26:46.949984+00:00", "wijk": "Kloosterveen", "address": "'t Stede 6", "resolved_date": "2026-05-28", "days_open": 2}, {"id": "0dce0afcdee4fff8", "lng": 6.5110644, "lat": 53.00914738, "category": "Openbaar groen en water", "category_slug": "openbaar-groen-en-water", "subcategory": "Overig Openbaar groen en water", "subcategory_slug": "overig-openbaar-groen-en-water", "created_at": "2026-05-19T12:14:29.814271+00:00", "wijk": "Kloosterveen", "address": "Boszegge 1", "resolved_date": "2026-05-28", "days_open": 8}, {"id": "3353149dea0af9f6", "lng": 6.531870544, "lat": 53.002804484, "category": "Overlast Openbare Ruimte", "category_slug": "overlast-openbare-ruimte", "subcategory": "Overig Overlast Openbare Ruimte", "subcategory_slug": "overig-overlast-openbare-ruimte", "created_at": "2026-05-27T06:24:49.412934+00:00", "wijk": "Wijk 04 Pittelo", "address": "Mien Ruysweg 10A-17", "resolved_date": "2026-05-28", "days_open": 0}, {"id": "a8b02de985f0529d", "lng": 6.541382074, "lat": 53.001189408, "category": "Openbaar groen en water", "category_slug": "openbaar-groen-en-water", "subcategory": "Snoeien", "subcategory_slug": "snoeien", "created_at": "2026-05-27T06:46:12.385127+00:00", "wijk": "Lariks", "address": "Beek 2A", "resolved_date": "2026-05-28", "days_open": 0}, {"id": "173bed39d374b0a4", "lng": 6.54751464, "lat": 53.00040541, "category": "Afval", "category_slug": "afval", "subcategory": "Veeg en zwerfvuil", "subcategory_slug": "veeg-en-zwerfvuil", "created_at": "2026-05-26T12:31:54.683716+00:00", "wijk": "Lariks", "address": "Selma Lagerlöflaan 5", "resolved_date": "2026-05-28", "days_open": 1}, {"id": "80ec80bb22c9b28d", "lng": 6.559039299, "lat": 53.000854284, "category": "Afval", "category_slug": "afval", "subcategory": "Overig Afval", "subcategory_slug": "overig-afval", "created_at": "2026-05-21T05:11:02.890369+00:00", "wijk": "Noorderpark", "address": "Molenstraat 155", "resolved_date": "2026-05-28", "days_open": 6}, {"id": "b315d7688a2b0ce1", "lng": 6.550431848, "lat": 53.004441796, "category": "Overlast Dier", "category_slug": "overlast-dier", "subcategory": "Hond", "subcategory_slug": "hond", "created_at": "2026-05-22T09:41:21.271231+00:00", "wijk": "Noorderpark", "address": "de Klenckestraat 4M", "resolved_date": "2026-05-28", "days_open": 5}, {"id": "72141a99b557fa5a", "lng": 6.547317803, "lat": 53.006383427, "category": "Overlast Dier", "category_slug": "overlast-dier", "subcategory": "Hond", "subcategory_slug": "hond", "created_at": "2026-04-28T11:38:58.330685+00:00", "wijk": "Lariks", "address": "Zuidenveld 50", "resolved_date": "2026-05-28", "days_open": 29}, {"id": "c46ee01df0caa0f0", "lng": 6.54689651, "lat": 53.00911987, "category": "Afval", "category_slug": "afval", "subcategory": "Dumping", "subcategory_slug": "dumping", "created_at": "2026-05-26T07:59:16.414827+00:00", "wijk": "Lariks", "address": "Rijnstraat 2A", "resolved_date": "2026-05-28", "days_open": 1}, {"id": "0a2a2b8fc43b42b0", "lng": 6.553502977, "lat": 53.017836146, "category": "Wegen, verkeer en straatmeubilair", "category_slug": "wegen-verkeer-en-straatmeubilair", "subcategory": "Onveilige verkeerssituatie", "subcategory_slug": "onveilige-verkeerssituatie", "created_at": "2025-12-22T13:22:06.490984+00:00", "wijk": "Peelo", "address": "Rietveld 19", "resolved_date": "2026-05-28", "days_open": 156}, {"id": "7f95db426fb4b3f8", "lng": 6.553521752, "lat": 53.017811944, "category": "Wegen, verkeer en straatmeubilair", "category_slug": "wegen-verkeer-en-straatmeubilair", "subcategory": "Paal", "subcategory_slug": "paal", "created_at": "2025-12-29T09:46:37.013694+00:00", "wijk": "Peelo", "address": "Heideveld 31", "resolved_date": "2026-05-28", "days_open": 149}, {"id": "609064dfee6ac809", "lng": 6.553540528, "lat": 53.017894233, "category": "Wegen, verkeer en straatmeubilair", "category_slug": "wegen-verkeer-en-straatmeubilair", "subcategory": "Onveilige verkeerssituatie", "subcategory_slug": "onveilige-verkeerssituatie", "created_at": "2026-03-02T10:48:20.208771+00:00", "wijk": "Peelo", "address": "Heideveld 31", "resolved_date": "2026-05-28", "days_open": 86}, {"id": "05903cf3772ee0f1", "lng": 6.553502725, "lat": 53.017900688, "category": "Wegen, verkeer en straatmeubilair", "category_slug": "wegen-verkeer-en-straatmeubilair", "subcategory": "Onveilige verkeerssituatie", "subcategory_slug": "onveilige-verkeerssituatie", "created_at": "2026-02-25T08:21:47.871887+00:00", "wijk": "Peelo", "address": "Heideveld 31", "resolved_date": "2026-05-28", "days_open": 91}, {"id": "dd8b1b1c13a30012", "lng": 6.55502465, "lat": 53.01712891, "category": "Overlast Openbare Ruimte", "category_slug": "overlast-openbare-ruimte", "subcategory": "Luchtkwaliteit", "subcategory_slug": "luchtkwaliteit", "created_at": "2026-05-11T07:50:16.420626+00:00", "wijk": "Peelo", "address": "Boekweitveld 23", "resolved_date": "2026-05-28", "days_open": 16}, {"id": "ee5b036fb99f1722", "lng": 6.55928582, "lat": 53.016104798, "category": "Wegen, verkeer en straatmeubilair", "category_slug": "wegen-verkeer-en-straatmeubilair", "subcategory": "Overig Wegen, verkeer en straatmeubilair", "subcategory_slug": "overig-wegen-verkeer-en-straatmeubilair", "created_at": "2026-05-26T12:20:01.219093+00:00", "wijk": "Peelo", "address": "Walakker 13", "resolved_date": "2026-05-28", "days_open": 1}, {"id": "ce5e2e31572a59fe", "lng": 6.56085611, "lat": 53.0172965, "category": "Openbaar groen en water", "category_slug": "openbaar-groen-en-water", "subcategory": "Maaien", "subcategory_slug": "maaien", "created_at": "2026-04-29T11:35:55.563421+00:00", "wijk": "Peelo", "address": "Scharmbarg 28", "resolved_date": "2026-05-28", "days_open": 28}, {"id": "a898ddc3ef92b88b", "lng": 6.55719079, "lat": 53.01898601, "category": "Openbaar groen en water", "category_slug": "openbaar-groen-en-water", "subcategory": "Onkruid", "subcategory_slug": "onkruid", "created_at": "2026-05-21T12:57:30.179747+00:00", "wijk": "Peelo", "address": "Hofstukken 79", "resolved_date": "2026-05-28", "days_open": 6}, {"id": "b1ae89cefb10959e", "lng": 6.557786465, "lat": 53.018520789, "category": "Afval", "category_slug": "afval", "subcategory": "Dumping", "subcategory_slug": "dumping", "created_at": "2026-05-26T08:01:47.948359+00:00", "wijk": "Peelo", "address": "Hofstukken 76", "resolved_date": "2026-05-28", "days_open": 1}, {"id": "a869c9d065e8b09d", "lng": 6.606532931, "lat": 53.017316588, "category": "Overlast Openbare Ruimte", "category_slug": "overlast-openbare-ruimte", "subcategory": "Overig Overlast Openbare Ruimte", "subcategory_slug": "overig-overlast-openbare-ruimte", "created_at": "2026-05-20T18:17:57.793645+00:00", "wijk": "Wijk 19 Rolde", "address": "Parelstoep 46", "resolved_date": "2026-05-28", "days_open": 7}, {"id": "8efffbecba56f5ba", "lng": 6.56251631, "lat": 53.02137824, "category": "Afval", "category_slug": "afval", "subcategory": "Minicontainer", "subcategory_slug": "minicontainer", "created_at": "2026-05-27T08:21:45.234021+00:00", "wijk": "Peelo", "address": "Heklanden 69", "resolved_date": "2026-05-28", "days_open": 0}, {"id": "4d80f48e1f440fcf", "lng": 6.567976177, "lat": 53.019441576, "category": "Wegen, verkeer en straatmeubilair", "category_slug": "wegen-verkeer-en-straatmeubilair", "subcategory": "Onveilige verkeerssituatie", "subcategory_slug": "onveilige-verkeerssituatie", "created_at": "2026-04-13T12:06:08.923248+00:00", "wijk": "Peelo", "address": "Groenkampen 210", "resolved_date": "2026-05-28", "days_open": 44}, {"id": "120ce2e205332504", "lng": 6.56787578, "lat": 53.01951009, "category": "Wegen, verkeer en straatmeubilair", "category_slug": "wegen-verkeer-en-straatmeubilair", "subcategory": "Paal", "subcategory_slug": "paal", "created_at": "2026-04-12T17:18:11.412473+00:00", "wijk": "Peelo", "address": "Groenkampen 210", "resolved_date": "2026-05-28", "days_open": 45}, {"id": "6ea675744e89bdc1", "lng": 6.577854753, "lat": 53.017654043, "category": "Openbaar groen en water", "category_slug": "openbaar-groen-en-water", "subcategory": "Overig Openbaar groen en water", "subcategory_slug": "overig-openbaar-groen-en-water", "created_at": "2026-05-25T16:11:47.908328+00:00", "wijk": "Marsdijk", "address": "Kaarnheugte 37", "resolved_date": "2026-05-28", "days_open": 2}, {"id": "0dd5c8efa4309ac9", "lng": 6.582702398, "lat": 53.018470665, "category": "Overlast Dier", "category_slug": "overlast-dier", "subcategory": "Eikenprocessierups", "subcategory_slug": "eikenprocessierups", "created_at": "2026-05-27T07:10:18.423352+00:00", "wijk": "Marsdijk", "address": "Dusselheugte 90A", "resolved_date": "2026-05-28", "days_open": 0}, {"id": "6203dd33536da826", "lng": 6.569823185, "lat": 53.003900966, "category": "Overlast Dier", "category_slug": "overlast-dier", "subcategory": "Eikenprocessierups", "subcategory_slug": "eikenprocessierups", "created_at": "2026-05-24T16:18:20.82135+00:00", "wijk": "Noorderpark", "address": "J.C. van Markenstraat 2", "resolved_date": "2026-05-28", "days_open": 3}, {"id": "8a842e96c87f079f", "lng": 6.603874862, "lat": 53.011475155, "category": "Wegen, verkeer en straatmeubilair", "category_slug": "wegen-verkeer-en-straatmeubilair", "subcategory": "Overig Wegen, verkeer en straatmeubilair", "subcategory_slug": "overig-wegen-verkeer-en-straatmeubilair", "created_at": "2026-05-27T08:11:34.081204+00:00", "wijk": "Wijk 19 Rolde", "address": "Peeloërweg 3", "resolved_date": "2026-05-28", "days_open": 0}, {"id": "7e3b69a564ea9781", "lng": 6.550685316, "lat": 52.961633289, "category": "Afval", "category_slug": "afval", "subcategory": "Veeg en zwerfvuil", "subcategory_slug": "veeg-en-zwerfvuil", "created_at": "2026-05-25T19:57:03.80897+00:00", "wijk": "Buitengebied", "address": "Burgemeester Grollemanweg 12", "resolved_date": "2026-05-28", "days_open": 2}, {"id": "23c1d2e78cb0dd26", "lng": 6.566879846, "lat": 52.967171342, "category": "Afval", "category_slug": "afval", "subcategory": "Dumping", "subcategory_slug": "dumping", "created_at": "2026-05-26T20:08:12.586998+00:00", "wijk": "Wijk 21 Ekehaar", "address": "Koningsmantel 16", "resolved_date": "2026-05-28", "days_open": 1}, {"id": "6dbbad75bf286a80", "lng": 6.566925866, "lat": 52.967208052, "category": "Afval", "category_slug": "afval", "subcategory": "Gevaarlijk afval", "subcategory_slug": "gevaarlijk-afval", "created_at": "2026-05-25T18:44:04.911441+00:00", "wijk": "Wijk 21 Ekehaar", "address": "Koningsmantel 16", "resolved_date": "2026-05-28", "days_open": 2}, {"id": "fac736deddf0eab0", "lng": 6.563116014, "lat": 52.979315375, "category": "Afval", "category_slug": "afval", "subcategory": "Dumping", "subcategory_slug": "dumping", "created_at": "2026-05-26T13:49:13.048766+00:00", "wijk": "Centrum", "address": "Cederlaan 14", "resolved_date": "2026-05-28", "days_open": 1}, {"id": "9c23cbb1becbd4ff", "lng": 6.565833092, "lat": 52.981090188, "category": "Overlast Dier", "category_slug": "overlast-dier", "subcategory": "Dood dier", "subcategory_slug": "dood-dier", "created_at": "2026-05-27T07:35:17.964955+00:00", "wijk": "Centrum", "address": "Europaweg-Zuid 2", "resolved_date": "2026-05-28", "days_open": 0}, {"id": "3480d7a6a9d3f727", "lng": 6.579155624, "lat": 52.987058266, "category": "Openbaar groen en water", "category_slug": "openbaar-groen-en-water", "subcategory": "Overig Openbaar groen en water", "subcategory_slug": "overig-openbaar-groen-en-water", "created_at": "2026-05-06T16:52:21.543818+00:00", "wijk": "Assen-Oost", "address": "Gentiaanstraat 1", "resolved_date": "2026-05-28", "days_open": 21}, {"id": "6378d81bbbf1ee1b", "lng": 6.572295573, "lat": 52.99028559, "category": "Wegen, verkeer en straatmeubilair", "category_slug": "wegen-verkeer-en-straatmeubilair", "subcategory": "Straatverlichting", "subcategory_slug": "straatverlichting", "created_at": "2026-04-07T19:08:30.076447+00:00", "wijk": "Assen-Oost", "address": "Rozenpad 14", "resolved_date": "2026-05-28", "days_open": 50},